stop_id,stop_code,stop_name,stop_desc,stop_lat,stop_lon,zone_id,stop_url,location_type,parent_station
1888,51874,WB HASTINGS ST FS HOLDOM AVE-,HASTINGS ST @ HOLDOM AVE,49.280436,-122.981419,ZN 99, ,0,
11108,61013,NB SHAUGHNESSY ST FS MCALLISTER AVE,SHAUGHNESSY ST @ MCALLISTER AVE,49.262588,-122.781242,ZN 99, ,0,
11259,59845,SB IOCO RD FS SUTER BROOK WAY,IOCO RD @ SUTER BROOK WAY,49.278864,-122.827419,ZN 99, ,0,
1477,51465,WB HASTINGS ST FS WILLINGDON AVE,HASTINGS ST @ WILLINGDON AVE,49.281124,-123.003973,ZN 99, ,0,
1885,51871,WB HASTINGS ST FS SPERLING AVE,HASTINGS ST @ SPERLING AVE,49.280453,-122.965437,ZN 99, ,0,
11940,61892,MOODY CENTRE STN BAY 5,MOODY CENTRE STN @ BAY 5,49.277834,-122.846551,ZN 99, ,0,
12182,59935,LINCOLN STN BAY 2,LINCOLN STN @ BAY 2,49.280127,-122.793538,ZN 99, ,0,
8139,58042,KOOTENAY LOOP BAY 2,KOOTENAY LOOP @ BAY 2,49.281562,-123.026025,ZN 99, ,0,
3261,53227,WB UNGLESS WAY FS GUILDFORD WAY,UNGLESS WAY @ GUILDFORD WAY,49.283994,-122.824236,ZN 99, ,0,
11827,58779,SB IOCO RD FS UNGLESS WAY,IOCO RD @ UNGLESS WAY,49.282924,-122.828277,ZN 99, ,0,
11766,51869,WB HASTINGS FS CLIFF AVE,HASTINGS ST @ CLIFF AVE,49.280433,-122.959530,ZN 99, ,0,
1886,51872,WB HASTINGS ST FS KENSINGTON AVE,HASTINGS ST @ KENSINGTON AVE,49.280464,-122.970601,ZN 99, ,0,
1887,51873,WB HASTINGS ST FS FELL AVE,HASTINGS ST @ FELL AVE,49.280427,-122.976062,ZN 99, ,0,
10205,51875,WB HASTINGS ST FS HOWARD AVE,HASTINGS ST @ HOWARD AVE,49.280429,-122.984501,ZN 99, ,0,
10204,51876,WB HASTINGS ST FS SPRINGER AVE,HASTINGS ST @ SPRINGER AVE,49.280447,-122.988400,ZN 99, ,0,
1891,51877,WB HASTINGS ST FS HYTHE AVE,HASTINGS ST @ HYTHE AVE,49.280240,-122.991013,ZN 99, ,0,
1892,51878,WB HASTINGS ST FS GAMMA AVE,HASTINGS ST @ GAMMA AVE,49.281077,-122.995896,ZN 99, ,0,
1478,51466,WB HASTINGS ST FS MADISON AVE,HASTINGS ST @ MADISON AVE,49.281127,-123.009657,ZN 99, ,0,
1480,51468,WB HASTINGS ST FS INGLETON AVE,HASTINGS ST @ INGLETON AVE,49.281178,-123.019110,ZN 99, ,0,
2742,52717,KOOTENAY LOOP BAY 7,KOOTENAY LOOP @ BAY 7,49.281204,-123.025393,ZN 99, ,0,
12241,53267,INLET CENTRE STN BAY 1,INLET CENTRE STN @ BAY 1,49.277972,-122.827464,ZN 99, ,0,
1893,51879,WB HASTINGS ST FS ALPHA AVE,HASTINGS ST @ ALPHA AVE,49.281099,-123.000747,ZN 99, ,0,
9224,58664,NB PINETREE WAY FS GLEN DR,PINETREE WAY @ GLEN DR,49.283005,-122.792996,ZN 99, ,0,
3303,53268,WB SAINT JOHNS ST FS MARY ST,SAINT JOHNS ST @ MARY ST,49.276808,-122.855015,ZN 99, ,0,
1391,58428,EB HASTINGS ST FS GILMORE AVE,HASTINGS ST @ GILMORE AVE,49.280952,-123.013445,ZN 99, ,0,
1858,51844,EB HASTINGS ST NS ALPHA AVE,HASTINGS ST @ ALPHA,49.280899,-123.001830,ZN 99, ,0,
1863,51849,EB HASTINGS ST FS HOLDOM AVE,HASTINGS ST @ HOLDOM AVE,49.280238,-122.979963,ZN 99, ,0,
1866,51852,EB HASTINGS ST FS SPERLING AVE,HASTINGS ST @ SPERLING AVE,49.280264,-122.963874,ZN 99, ,0,
3757,53718,NB INLET DR FS RIDGE DR,INLET DR @ RIDGE DR,49.283746,-122.955519,ZN 99, ,0,
3758,53719,NB INLET DR FS BAYVIEW DR,INLET DR @ BAYVIEW DR,49.287081,-122.952613,ZN 99, ,0,
3759,53720,EB BARNET RD AT 7600 BLOCK,BARNET RD @ 7600 BLOCK,49.289962,-122.940212,ZN 99, ,0,
3761,53722,EB BARNET RD AT BARNET MARINE PARK,BARNET RD @ BARNET MARINE PARK,49.288791,-122.925354,ZN 99, ,0,
3762,53723,EB BARNET RD AT 9900 BLOCK,BARNET RD @ 9900 BLOCK,49.288534,-122.896201,ZN 99, ,0,
3763,53724,EB BARNET HWY NS REED POINT WAY,BARNET HWY @ REED POINT WAY,49.290672,-122.879956,ZN 99, ,0,
3764,53725,SB BARNET HWY NS GORE ST,BARNET HWY @ GORE ST,49.284239,-122.867369,ZN 99, ,0,
3765,53726,SB BARNET HWY NS CLARKE ST,BARNET HWY @ CLARKE ST,49.278468,-122.867050,ZN 99, ,0,
3177,53144,EB SAINT JOHNS ST FS DOUGLAS ST,SAINT JOHNS ST @ DOUGLAS ST,49.276593,-122.863686,ZN 99, ,0,
3178,53145,EB SAINT JOHNS ST FS ELGIN ST,SAINT JOHNS ST @ ELGIN ST,49.276629,-122.861233,ZN 99, ,0,
3179,53146,EB SAINT JOHNS ST FS QUEENS ST,SAINT JOHNS ST @ QUEENS ST,49.276656,-122.858050,ZN 99, ,0,
3257,53223,EB SAINT JOHNS ST FS MARY ST,SAINT JOHNS ST @ MARY ST,49.276622,-122.854097,ZN 99, ,0,
3180,53147,EB SAINT JOHNS ST NS MOODY ST,SAINT JOHNS ST @ MOODY ST,49.276572,-122.850519,ZN 99, ,0,
12020,61912,MOODY CENTRE STN BAY 4,MOODY CENTRE STN @ BAY 4,49.277804,-122.846180,ZN 99, ,0,
3181,53148,EB SAINT JOHNS ST FS WILLIAMS ST,SAINT JOHNS ST @ WILLIAMS ST,49.276543,-122.844333,ZN 99, ,0,
3182,53149,EB SAINT JOHNS ST FS BULLER ST,SAINT JOHNS ST @ BULLER ST,49.276532,-122.839688,ZN 99, ,0,
3184,53151,EB SAINT JOHNS ST NS CLEARVIEW DR,SAINT JOHNS ST @ CLEARVIEW DR,49.276382,-122.831044,ZN 99, ,0,
3331,53296,EB GUILDFORD WAY FS FALCON DR,GUILDFORD WAY @ FALCON DR,49.284283,-122.818159,ZN 99, ,0,
3332,53297,EB GUILDFORD WAY FS EAGLERIDGE DR,GUILDFORD WAY @ EAGLERIDGE DR,49.283443,-122.812309,ZN 99, ,0,
3333,53298,EB GUILDFORD WAY FS LANSDOWNE DR,GUILDFORD WAY @ LANSDOWNE DR,49.284404,-122.809020,ZN 99, ,0,
3198,53164,EB GUILDFORD WAY FS JOHNSON ST,GUILDFORD WAY @ JOHNSON ST,49.285093,-122.800930,ZN 99, ,0,
3199,53165,EB GUILDFORD WAY FS PACIFIC ST,GUILDFORD WAY @ PACIFIC ST,49.285106,-122.797418,ZN 99, ,0,
3768,53729,EB GUILDFORD WAY NS TOWN CENTRE BLVD,GUILDFORD WAY @ TOWN CENTRE BLVD,49.284896,-122.795057,ZN 99, ,0,
3906,53866,COQUITLAM CENTRAL STN BAY 5,COQUITLAM CENTRAL STN @ BAY 5,49.274998,-122.798874,ZN 99, ,0,
3054,53022,EB LOUGHEED HWY NS WESTWOOD ST,LOUGHEED HWY @ WESTWOOD ST,49.274107,-122.792389,ZN 99, ,0,
3055,53023,EB LOUGHEED HWY FS HASTINGS ST,LOUGHEED HWY @ HASTINGS ST,49.269621,-122.781554,ZN 99, ,0,
3057,53025,SB SHAUGHNESSY ST FS MCALLISTER AVE,SHAUGHNESSY ST @ MCALLISTER AVE,49.262566,-122.781495,ZN 99, ,0,
3058,53026,EB WILSON AVE FS SHAUGHNESSY ST,WILSON AVE @ SHAUGHNESSY ST,49.260806,-122.781600,ZN 99, ,0,
3059,53027,EB WILSON AVE FS MARY HILL RD,WILSON AVE @ MARY HILL RD,49.260805,-122.777747,ZN 99, ,0,
3779,53740,PORT COQUITLAM STN BAY 4,PORT COQUITLAM STN @ BAY 4,49.261233,-122.774173,ZN 99, ,0,
8696,58226,EB GUILDFORD WAY FS UNGLESS WAY,GUILDFORD WAY @ UNGLESS WAY,49.283750,-122.822697,ZN 99, ,0,
10388,59662,EB BARNET RD NS CARIBOO RD,BARNET RD @ CARIBOO RD,49.287702,-122.914774,ZN 99, ,0,
11198,53150,EB SAINT JOHNS ST FS MORAY ST,SAINT JOHNS ST @ MORAY ST,49.276599,-122.834269,ZN 99, ,0,
11308,59903,NB IOCO RD FS SUTER BROOK WAY,IOCO RD @ SUTER BROOK WAY,49.279699,-122.826959,ZN 99, ,0,
3056,53024,SB SHAUGHNESSY ST NS LIONS WAY,SHAUGHNESSY ST @ LIONS WAY,49.266511,-122.777567,ZN 99, ,0,
1388,51376,EB HASTINGS ST FS BOUNDARY RD,HASTINGS ST @ BOUNDARY RD,49.281017,-123.022733,ZN 99, ,0,
1389,51377,EB HASTINGS ST FS INGLETON AVE,HASTINGS ST @ INGLETON AVE,49.280990,-123.018168,ZN 99, ,0,
1390,51378,EB HASTINGS ST FS MACDONALD AVE,HASTINGS ST @ MACDONALD AVE,49.280965,-123.015770,ZN 99, ,0,
11614,51380,EB HASTINGS ST FS MADISON AVE,HASTINGS ST @ MADISON AVE,49.280947,-123.008143,ZN 99, ,0,
1393,51381,EB HASTINGS ST NS WILLINGDON AVE,HASTINGS ST @ WILLINGDON AVE,49.280926,-123.005170,ZN 99, ,0,
1859,51845,EB HASTINGS ST FS BETA AVE,HASTINGS ST @ BETA AVE,49.280895,-122.996968,ZN 99, ,0,
1860,51846,EB HASTINGS ST FS HYTHE AVE,HASTINGS ST @ HYTHE AVE,49.280184,-122.989775,ZN 99, ,0,
1861,51847,EB HASTINGS ST FS SPRINGER AVE,HASTINGS ST @ SPRINGER AVE,49.280252,-122.987293,ZN 99, ,0,
1862,51848,EB HASTINGS ST FS HOWARD AVE,HASTINGS ST @ HOWARD AVE,49.280242,-122.983237,ZN 99, ,0,
1864,51850,EB HASTINGS ST FS FELL AVE,HASTINGS ST @ FELL AVE,49.280241,-122.975131,ZN 99, ,0,
1865,51851,EB HASTINGS ST FS KENSINGTON AVE,HASTINGS ST @ KENSINGTON AVE,49.280234,-122.969232,ZN 99, ,0,
11402,53264,EB UNGLESS WAY FS IOCO RD,UNGLESS WAY @ IOCO RD,49.284250,-122.827325,ZN 99, ,0,
3317,53282,NB IOCO RD FS NEWPORT DR,IOCO RD @ NEWPORT DR,49.282831,-122.827884,ZN 99, ,0,
12242,61988,INLET CENTRE STN BAY 2,INLET CENTRE STN @ BAY 2,49.278107,-122.827110,ZN 99, ,0,
12280,59890,LINCOLN STN BAY 1,LINCOLN STN @ BAY 1,49.280035,-122.794039,ZN 99, ,0,
9714,58666,SB PINETREE WAY FS GUILDFORD WAY,PINETREE WAY @ GUILDFORD WAY,49.284133,-122.793034,ZN 99, ,0,
3202,53168,SB PINETREE WAY FS GLEN DR,PINETREE WAY @ GLEN DR,49.282279,-122.793400,ZN 99, ,0,
12342,51854,NB INLET DR FS HASTINGS ST,INLET DR @ HASTINGS ST,49.280692,-122.958130,ZN 99, ,0,
3908,53868,LAFARGE LAKE-DOUGLAS STN BAY 2,LAFARGE LAKE-DOUGLAS STN @ BAY 2,49.286551,-122.791698,ZN 99, ,0,
12263,53942,EB ROBSON DR FS WATERFORD PLACE,ROBSON DR @ WATERFORD PL,49.300043,-122.789855,ZN 99, ,0,
3195,53161,COQUITLAM CENTRAL STN BAY 6,COQUITLAM CENTRAL STN @ BAY 6,49.274659,-122.799011,ZN 99, ,0,
3984,53943,EB ROBSON DR FS PINETREE WAY,ROBSON DR @ PINETREE WAY,49.298347,-122.787069,ZN 99, ,0,
3985,53944,EB ROBSON DR FS PURCELL DR,ROBSON DR @ PURCELL DR,49.297167,-122.782859,ZN 99, ,0,
3986,53945,EB ROBSON DR AT BLACKWATER PL,ROBSON DR @ BLACKWATER PL,49.298466,-122.780868,ZN 99, ,0,
3987,53946,SB PIPELINE RD FS ROBSON DR,PIPELINE RD @ ROBSON DR,49.298489,-122.778496,ZN 99, ,0,
9598,59093,SB PIPELINE RD AT 1300 BLOCK,PIPELINE RD @ 1300 BLOCK,49.295794,-122.779806,ZN 99, ,0,
9134,58815,SB PIPELINE RD FS DAYANEE SPRINGS BLVD,PIPELINE RD @ DAYANEE SPRINGS BLVD,49.294010,-122.780732,ZN 99, ,0,
11959,59399,WB DAVID AVE FS PIPELINE RD,DAVID AVE @ PIPELINE RD,49.292923,-122.782894,ZN 99, ,0,
11557,61361,WB DAVID AVE NS GENEST WAY,DAVID AVE @ GENEST WAY,49.292978,-122.785631,ZN 99, ,0,
10592,60201,SB PINETREE WAY FS DAVID AVE,PINETREE WAY @ DAVID AVE,49.293857,-122.790441,ZN 99, ,0,
9981,59264,SB PINETREE WAY AT 1300 BLOCK,PINETREE WAY @ 1300 BLOCK,49.291971,-122.790158,ZN 99, ,0,
3929,53888,SB PINETREE WAY FS PINEWOOD AVE,PINETREE WAY @ PINEWOOD AVE,49.290649,-122.789974,ZN 99, ,0,
9418,58831,SB PINETREE WAY AT DOUGLAS COLLEGE,PINETREE WAY @ COLLEGE ACCESS RD,49.288487,-122.790596,ZN 99, ,0,
7643,57570,COQUITLAM CENTRAL STN BAY 2,COQUITLAM CENTRAL STN @ BAY 2,49.275504,-122.798559,ZN 99, ,0,
3780,58997,NB PINETREE WAY NS ANSON AVE,PINETREE WAY @ ANSON AVE,49.277745,-122.795710,ZN 99, ,0,
12208,59565,LAFARGE LAKE-DOUGLAS STN BAY 1,LAFARGE LAKE-DOUGLAS STN @ BAY 1,49.285972,-122.791586,ZN 99, ,0,
9231,58832,NB PINETREE WAY AT DOUGLAS COLLEGE,PINETREE WAY @ COLLEGE ACCESS RD,49.288910,-122.789966,ZN 99, ,0,
9232,58833,NB PINETREE WAY FS PINEWOOD AVE,PINETREE WAY @ PINEWOOD AVE,49.291226,-122.789613,ZN 99, ,0,
10139,59495,NB PINETREE WAY AT 1300 BLOCK,PINETREE WAY @ 1300 BLOCK,49.292615,-122.790129,ZN 99, ,0,
11407,60331,EB DAVID AVE FS PINETREE WAY,DAVID AVE @ PINETREE WAY,49.293830,-122.789323,ZN 99, ,0,
11556,61294,EB DAVID AVE FS GENEST WAY,DAVID AVE @ GENEST WAY,49.292773,-122.785177,ZN 99, ,0,
9233,58816,NB PIPELINE RD FS EL CASA COURT,PIPELINE RD @ EL CASA COURT,49.294696,-122.780128,ZN 99, ,0,
9259,58818,WB ROBSON DR FS KENNEY ST,ROBSON DR @ KENNEY ST,49.299225,-122.779039,ZN 99, ,0,
9260,58817,SB ROBSON DR FS BLACKWATER PL,ROBSON DR @ BLACKWATER PL,49.298222,-122.781322,ZN 99, ,0,
9261,58822,WB ROBSON DR FS PURCELL DR,ROBSON DR @ PURCELL DR,49.297263,-122.783864,ZN 99, ,0,
10134,59484,WB ROBSON DR FS MADRONA PL,ROBSON DR @ MADRONA PL,49.300345,-122.791805,ZN 99, ,0,
10138,59483,WB ROBSON DR FS PINETREE WAY,ROBSON DR @ PINETREE WAY,49.298998,-122.787626,ZN 99, ,0,
3904,53864,COQUITLAM CENTRAL STN BAY 10,COQUITLAM CENTRAL STN @ BAY 10,49.275476,-122.798722,ZN 99, ,0,
3968,58298,SB JOHNSON ST FS PARKWAY BLVD,JOHNSON ST @ PARKWAY BLVD,49.296540,-122.802092,ZN 99, ,0,
3969,53928,SB JOHNSON ST FS DELAHAYE DR,JOHNSON ST @ DELAHAYE DR,49.292794,-122.800732,ZN 99, ,0,
3970,53929,SB JOHNSON ST FS WALTON AVE,JOHNSON ST @ WALTON AVE,49.289646,-122.801575,ZN 99, ,0,
3971,53930,SB JOHNSON ST FS DURANT DR,JOHNSON ST @ DURANT DR,49.287237,-122.801666,ZN 99, ,0,
10132,53931,SB JOHNSON ST FS GUILDFORD WAY,JOHNSON ST @ GUILDFORD WAY,49.284778,-122.801761,ZN 99, ,0,
3973,53932,SB JOHNSON ST FS GLEN DR,JOHNSON ST @ GLEN DR,49.282373,-122.801827,ZN 99, ,0,
3974,53933,SB JOHNSON ST FS PACKARD AVE,JOHNSON ST @ PACKARD AVE,49.279616,-122.801818,ZN 99, ,0,
9282,58883,WB JOHNSON ST FS ROBSON DR,JOHNSON ST @ ROBSON DR,49.301040,-122.794107,ZN 99, ,0,
9283,58887,WB JOHNSON ST AT 1400 BLOCK,JOHNSON ST @ 1400 BLOCK,49.300913,-122.797005,ZN 99, ,0,
3334,53299,COQUITLAM CENTRAL STN BAY 1,COQUITLAM CENTRAL STN @ BAY 1,49.275730,-122.798378,ZN 99, ,0,
3196,53162,NB JOHNSON ST NS PACKARD AVE,JOHNSON ST @ PACKARD AVE,49.279702,-122.801564,ZN 99, ,0,
12028,53163,NB JOHNSON ST FS GLEN DR,JOHNSON ST @ GLEN DR,49.282981,-122.801486,ZN 99, ,0,
3975,53934,NB JOHNSON ST FS GUILDFORD WAY,JOHNSON ST @ GUILDFORD WAY,49.285675,-122.801460,ZN 99, ,0,
3976,53935,NB JOHNSON ST FS DURANT DR,JOHNSON ST @ DURANT DR,49.287812,-122.801386,ZN 99, ,0,
3977,53936,NB JOHNSON ST FS WALTON AVE,JOHNSON ST @ WALTON AVE,49.290331,-122.801188,ZN 99, ,0,
3978,53937,NB JOHNSON ST FS DELAHAYE DR,JOHNSON ST @ DELAHAYE DR,49.293425,-122.800464,ZN 99, ,0,
3979,53938,NB JOHNSON ST FS DAVID AVE,JOHNSON ST @ DAVID AVE,49.296339,-122.801809,ZN 99, ,0,
3981,53940,NB JOHNSON ST NS MEADOWVISTA PL,JOHNSON ST @ MEADOWVISTA PL,49.299046,-122.800661,ZN 99, ,0,
10145,59505,EB JOHNSON ST AT 1400 BLOCK,JOHNSON ST @ 1400 BLOCK,49.300809,-122.796797,ZN 99, ,0,
3982,53941,EB JOHNSON ST NS ROBSON DR,JOHNSON ST @ ROBSON DR,49.300888,-122.795149,ZN 99, ,0,
3980,53939,NB JOHNSON ST FS VALLEY VISTA DR,JOHNSON ST @ VALLEY VISTA DR,49.298023,-122.801139,ZN 99, ,0,
4667,54615,WB MARINE DR FS 19 ST,MARINE DR @ 19 ST,49.328901,-123.164655,ZN 99, ,0,
4668,54616,WB MARINE DR FS 20 ST,MARINE DR @ 20 ST,49.329541,-123.166708,ZN 99, ,0,
4669,54617,WB MARINE DR FS 21 ST,MARINE DR @ 21 ST,49.330055,-123.168395,ZN 99, ,0,
4670,54618,WB MARINE DR NS 22 ST,MARINE DR @ 22 ST,49.330800,-123.170850,ZN 99, ,0,
4672,54620,WB MARINE DR FS 23 ST,MARINE DR @ 23 ST,49.333278,-123.175257,ZN 99, ,0,
4673,54621,WB MARINE DR NS 24 ST,MARINE DR @ 24 ST,49.334190,-123.179040,ZN 99, ,0,
4644,54592,EB MARINE DR FS 25 ST,MARINE DR @ 25 ST,49.334732,-123.182038,ZN 99, ,0,
4832,54780,WB MARINE DR FS 14 ST,MARINE DR @ 14 ST,49.328058,-123.154732,ZN 99, ,0,
8643,51474,WB W GEORGIA ST FS CARDERO ST,W GEORGIA ST @ CARDERO ST,49.290935,-123.130883,ZN 99, ,0,
9128,58705,WB W GEORGIA ST FS BURRARD ST--,W GEORGIA ST @ BURRARD ST,49.284954,-123.121726,ZN 99, ,0,
9131,58704,WB W GEORGIA ST FS BUTE ST--,W GEORGIA ST @ BUTE ST,49.287499,-123.125666,ZN 99, ,0,
4659,54607,WB MARINE DR AT CAPILANO RIVER,MARINE DR @ CAPILANO RIVER,49.326544,-123.130004,ZN 99, ,0,
4495,58504,WB W GEORGIA ST FS SEYMOUR ST,W GEORGIA ST @ SEYMOUR ST,49.282196,-123.117464,ZN 99, ,0,
9056,54448,WB W GEORGIA ST FS BROUGHTON ST,W GEORGIA ST @ BROUGHTON ST,49.289356,-123.128526,ZN 99, ,0,
10670,58267,NB HOMER ST NS DUNSMUIR ST,HOMER ST @ DUNSMUIR ST,49.281337,-123.113897,ZN 99, ,0,
1487,51475,WB W GEORGIA ST FS DENMAN ST,W GEORGIA ST @ DENMAN ST,49.292951,-123.134018,ZN 99, ,0,
4491,54441,WB MARINE DR AT PARK ROYAL NORTH-,MARINE DR @ PARK ROYAL NORTH,49.327102,-123.138897,ZN 99, ,0,
4661,54609,WB MARINE DR FS MAIN ST,MARINE DR @ MAIN ST,49.326890,-123.143620,ZN 99, ,0,
4662,54610,WB MARINE DR FS 11 ST,MARINE DR @ 11 ST,49.326988,-123.147479,ZN 99, ,0,
4663,54611,WB MARINE DR FS 13 ST,MARINE DR @ 13 ST,49.327721,-123.151989,ZN 99, ,0,
4664,54612,WB MARINE DR FS 15 ST,MARINE DR @ 15 ST,49.328461,-123.157136,ZN 99, ,0,
4665,54613,WB MARINE DR NS 17 ST,MARINE DR @ 17 ST,49.328720,-123.159870,ZN 99, ,0,
4666,54614,WB MARINE DR FS 18 ST,MARINE DR @ 18 ST,49.328680,-123.162646,ZN 99, ,0,
4645,54593,EB MARINE DR FS 24 ST,MARINE DR @ 24 ST,49.333977,-123.178898,ZN 99, ,0,
4646,54594,EB MARINE DR NS 23 ST,MARINE DR @ 23 ST,49.333047,-123.175082,ZN 99, ,0,
4647,54595,EB MARINE DR FS 22 ST,MARINE DR @ 22 ST,49.330567,-123.170678,ZN 99, ,0,
4648,54596,EB MARINE DR FS 21 ST,MARINE DR @ 21 ST,49.329656,-123.167740,ZN 99, ,0,
4649,54597,EB MARINE DR NS 20 ST,MARINE DR @ 20 ST,49.329332,-123.166666,ZN 99, ,0,
4650,54598,EB MARINE DR FS 19 ST,MARINE DR @ 19 ST,49.328566,-123.163934,ZN 99, ,0,
4651,54599,EB MARINE DR FS 18 ST,MARINE DR @ 18 ST,49.328527,-123.161817,ZN 99, ,0,
4652,54600,EB MARINE DR FS 17 ST,MARINE DR @ 17 ST,49.328534,-123.159782,ZN 99, ,0,
4653,54601,EB MARINE DR FS 15 ST,MARINE DR @ 15 ST,49.328163,-123.156374,ZN 99, ,0,
4654,54602,EB MARINE DR FS 14 ST,MARINE DR @ 14 ST,49.327769,-123.153970,ZN 99, ,0,
4655,54603,EB MARINE DR FS 11 ST,MARINE DR @ 11 ST,49.326635,-123.146731,ZN 99, ,0,
4656,54604,EB MARINE DR FS MAIN ST,MARINE DR @ MAIN ST,49.326656,-123.142905,ZN 99, ,0,
4461,54411,EB MARINE DR AT PARK ROYAL SOUTH--,MARINE DR @ PARK ROYAL SOUTH,49.326849,-123.138250,ZN 99, ,0,
981,50972,EB W GEORGIA ST FS DENMAN ST,W GEORGIA ST @ DENMAN ST,49.292261,-123.133361,ZN 99, ,0,
983,50974,EB W GEORGIA ST FS BUTE ST,W GEORGIA ST @ BUTE ST,49.286717,-123.124885,ZN 99, ,0,
984,50975,EB W GEORGIA ST FS BURRARD ST-,W GEORGIA ST @ BURRARD ST,49.284132,-123.120872,ZN 99, ,0,
4658,54606,NB HOMER ST FS W GEORGIA ST,HOMER ST @ W GEORGIA ST,49.280858,-123.114696,ZN 99, ,0,
8634,58254,EB W GEORGIA ST FS BIDWELL ST,W GEORGIA ST @ BIDWELL ST,49.291212,-123.131834,ZN 99, ,0,
9487,58722,EB W GEORGIA ST NS GILFORD ST,W GEORGIA ST @ GILFORD ST,49.293655,-123.135601,ZN 99, ,0,
11673,61566,EB MARINE DR OFFRAMP NS LIONS GATE BRIDGE,MARINE DR OFFRAMP @ LIONS GATE BRIDGE,49.325824,-123.129537,ZN 99, ,0,
985,50976,EB W GEORGIA ST NS GRANVILLE ST,W GEORGIA ST @ GRANVILLE ST,49.282769,-123.118737,ZN 99, ,0,
982,50973,EB W GEORGIA ST FS BROUGHTON ST,W GEORGIA ST @ BROUGHTON ST,49.288694,-123.127919,ZN 99, ,0,
8027, ,MISSION CITY STN WESTBOUND,WEST COAST EXPRESS @ MISSION CITY STATION,49.133716,-122.303087,WCE4Z, ,0,
8028, ,PORT HANEY STN WESTBOUND,WEST COAST EXPRESS @ PORT HANEY STATION,49.212223,-122.605216,WCE3Z, ,0,
8029, ,MAPLE MEADOWS STN WESTBOUND,WEST COAST EXPRESS @ MAPLE MEADOWS STATION,49.216544,-122.666265,WCE3Z, ,0,
8030, ,PITT MEADOWS STN WESTBOUND,WEST COAST EXPRESS @ PITT MEADOWS STATION,49.225810,-122.688341,WCE3Z, ,0,
8031, ,PORT COQUITLAM STN WESTBOUND,WEST COAST EXPRESS @ PORT COQUITLAM STATION,49.261510,-122.773934,WCE2Z, ,0,
8032, ,COQUITLAM CENTRAL STN WESTBOUND,WEST COAST EXPRESS @ COQUITLAM CENTRAL STATION,49.273951,-122.799999,WCE2Z, ,0,
8033, ,MOODY CENTRE STN WESTBOUND,WEST COAST EXPRESS @ PORT MOODY STATION,49.278063,-122.846310,WCE2Z, ,0,
8034, ,WATERFRONT STN WEST UNLOAD ONLY,WEST COAST EXPRESS @ WATERFRONT STN,49.286116,-123.111512,WCE1Z, ,0,
12322, ,COQUITLAM CENTRAL STATION WESTBOUND,COQUITLAM CENTRAL STATION @ WESTCOAST EXPRESS,49.273800,-122.800400,WCE2Z, ,0,
12320, ,MOODY CENTRE STATION WESTBOUND,PORT MOODY STATION @ WEST COAST EXPRESS,49.278067,-122.846600,WCE2Z, ,0,
8019, ,WATERFRONT STATION WEST COAST EXPRESS,WEST COAST EXPRESS @ WATERFRONT STATION,49.286053,-123.111580,WCE1Z, ,0,12034
8020, ,MOODY CENTRE STN EASTBOUND,WEST COAST EXPRESS @ PORT MOODY STATION,49.278067,-122.846248,WCE2Z, ,0,
8021, ,COQUITLAM CENTRAL STN EASTBOUND,WEST COAST EXPRESS @ COQUITLAM CENTRAL STATION,49.273909,-122.800056,WCE2Z, ,0,
8022, ,PORT COQUITLAM STN EASTBOUND,WEST COAST EXPRESS @ PORT COQUITLAM STATION,49.261480,-122.774019,WCE2Z, ,0,
8023, ,PITT MEADOWS STN EASTBOUND,WEST COAST EXPRESS @ PITT MEADOWS STATION,49.225771,-122.688380,WCE3Z, ,0,
8024, ,MAPLE MEADOWS STN EASTBOUND,WEST COAST EXPRESS @ MAPLE MEADOWS STATION,49.216465,-122.666097,WCE3Z, ,0,
8025, ,PORT HANEY STN EASTBOUND,WEST COAST EXPRESS @ PORT HANEY STATION,49.212167,-122.605242,WCE3Z, ,0,
8026, ,MISSION CITY STN EASTBOUND,WEST COAST EXPRESS @ MISSION CITY STATION,49.133552,-122.303088,WCE4Z, ,0,
12138, ,WATERFRONT STN WEST COAST EXPRESS,W WATERFRONT RD @ SKYTRAIN,49.286500,-123.111000,WCE1A, ,0,
12319, ,MOODY CENTRE STATION EASTBOUND,PORT MOODY STATION @ WEST COAST EXPRESS,49.278067,-122.846000,WCE2Z, ,0,
12321, ,COQUITLAM CENTRAL STATION EASTBOUND,COQUITLAM CENTRAL STATION @ WEST COAST EXPRESS,49.273800,-122.800000,WCE2Z, ,0,
6730,56667,SB HWY 17 FS 52 ST,HWY 17 @ 52 ST,49.037228,-123.080543,ZN 99, ,0,
6732,56669,TSAWWASSEN FERRY TERMINAL,BUS ACCESS RD @ TSAWWASSEN FERRY TERMINAL,49.007332,-123.130119,ZN 99, ,0,
8283,58048,SB HWY 99 ONRAMP FS STEVESTON HWY,HIGHWAY 99 OFFRAMP @ STEVESTON HWY,49.132835,-123.087135,ZN 99, ,0,
7468,57395,LADNER EXCHANGE BAY 2,LADNER EXCHANGE @ BAY 2,49.087659,-123.062078,ZN 99, ,0,
11248,61324,BRIDGEPORT STN BAY 4,BRIDGEPORT STATION @ BAY 4,49.195119,-123.126832,ZN 99, ,0,
6731,56668,SB HWY 17 FS TSAWWASSEN DR,HWY 17 @ TSAWWASSEN DR,49.028730,-123.098216,ZN 99, ,0,
11852,61767,TSAWWASSEN FERRY TERMINAL,BUS ACCESS RD @ TSAWWASSEN FERRY TERMINAL,49.006812,-123.129759,ZN 99, ,0,
6734,56671,NB HWY 17 FS 52 ST,HWY 17 @ 52 ST,49.037772,-123.078902,ZN 99, ,0,
6727,56664,LADNER EXCHANGE BAY 1,LADNER EXCHANGE @ BAY 1,49.087660,-123.062457,ZN 99, ,0,
8282,58047,NB HWY 99 OFFRAMP NS STEVESTON HWY,HIGHWAY 99 OFFRAMP @ STEVESTON HWY,49.133062,-123.084351,ZN 99, ,0,
11270,61321,BRIDGEPORT STN BAY 1 UNLOADING ONLY,BRIDGEPORT STATION @ BAY 1,49.195521,-123.125926,ZN 99, ,0,
6733,56670,NB HWY 17 FS TSAWWASSEN DR,HWY 17 @ TSAWWASSEN DR,49.029448,-123.096194,ZN 99, ,0,
76,50076,EB W PENDER ST FS BURRARD ST,W PENDER ST @ BURRARD ST,49.286121,-123.117245,ZN 99, ,0,
77,50077,EB W PENDER ST NS GRANVILLE ST,W PENDER ST @ GRANVILLE ST,49.284791,-123.115231,ZN 99, ,0,
9486,58728,STANLEY PARK LOOP BAY 2,ROSE GARDEN LANE @ BAY 2,49.300677,-123.134046,ZN 99, ,0,
8983,58008,SB LOST LAGOON RD NS CAUSEWAY,LOST LAGOON RD @ STANLEY PARK CAUSEWAY,49.296637,-123.136713,ZN 99, ,0,
1382,51370,EB W PENDER ST FS NICOLA ST,W PENDER ST @ NICOLA ST,49.289898,-123.128771,ZN 99, ,0,
1383,51371,EB W PENDER ST FS BROUGHTON ST,W PENDER ST @ BROUGHTON ST,49.289364,-123.127117,ZN 99, ,0,
414,50410,SB CAMBIE ST FS W HASTINGS ST,CAMBIE ST @ W HASTINGS ST,49.282211,-123.109799,ZN 99, ,0,
1385,51373,EB W PENDER ST FS BUTE ST,W PENDER ST @ BUTE ST,49.288213,-123.123062,ZN 99, ,0,
11220,51372,EB W PENDER ST FS JERVIS ST,W PENDER ST @ JERVIS ST,49.288846,-123.125208,ZN 99, ,0,
410,50406,EB W PENDER ST FS THURLOW ST,W PENDER ST @ THURLOW ST,49.287284,-123.119898,ZN 99, ,0,
78,50078,EB W PENDER ST FS SEYMOUR ST,W PENDER ST @ SEYMOUR ST,49.283753,-123.113589,ZN 99, ,0,
79,50079,EB W PENDER ST FS RICHARDS ST,W PENDER ST @ RICHARDS ST,49.282963,-123.112358,ZN 99, ,0,
1818,51804,NB MUIRFIELD DR FS SCARBORO AVE,MUIRFIELD DR @ SCARBORO AVE,49.213192,-123.057069,ZN 99, ,0,
1819,51805,NB MUIRFIELD DR FS BOBOLINK AVE,MUIRFIELD DR @ BOBOLINK AVE,49.214723,-123.055961,ZN 99, ,0,
1820,51806,NB MUIRFIELD DR FS LYNBROOK DR,MUIRFIELD DR @ LYNBROOK DR,49.217274,-123.055257,ZN 99, ,0,
1821,51807,EB ASHBURN ST NS ELLIOTT ST,ASHBURN ST @ ELLIOTT ST,49.218226,-123.054997,ZN 99, ,0,
1822,51808,NB ELLIOTT ST FS E 54 AVE,ELLIOTT ST @ E 54 AVE,49.220497,-123.054800,ZN 99, ,0,
1823,51809,NB ELLIOTT ST FS E 52 AVE,ELLIOTT ST @ E 52 AVE,49.222238,-123.054709,ZN 99, ,0,
1824,51810,NB ELLIOTT ST FS E 49 AVE,ELLIOTT ST @ E 49 AVE,49.225178,-123.054616,ZN 99, ,0,
1825,51811,NB ELLIOTT ST FS E 46 AVE,ELLIOTT ST @ E 46 AVE,49.228739,-123.054556,ZN 99, ,0,
1827,51813,NB CLARENDON ST FS E 43 AVE,CLARENDON ST @ E 43 AVE,49.231191,-123.055124,ZN 99, ,0,
1828,51814,NB CLARENDON ST FS E 41 AVE,CLARENDON ST @ E 41 AVE,49.233190,-123.055335,ZN 99, ,0,
1829,51815,NB CLARENDON ST FS E 39 AVE,CLARENDON ST @ E 39 AVE,49.235129,-123.055396,ZN 99, ,0,
1830,51816,NB CLARENDON ST FS E 37 AVE,CLARENDON ST @ E 37 AVE,49.237621,-123.055365,ZN 99, ,0,
669,50662,NB SLOCAN ST FS KINGSWAY,SLOCAN ST @ KINGSWAY,49.240280,-123.053651,ZN 99, ,0,
670,50663,NB SLOCAN ST FS WARD ST,SLOCAN ST @ WARD ST,49.241686,-123.052298,ZN 99, ,0,
671,50664,NB SLOCAN ST FS EUCLID AVE,SLOCAN ST @ EUCLID AVE,49.243511,-123.050495,ZN 99, ,0,
1831,51817,EB E 29 AVE FS SLOCAN ST,E 29 AVE @ SLOCAN ST,49.244554,-123.049080,ZN 99, ,0,
1832,51818,29TH AVE STN BAY 1,29TH AVENUE STATION @ BAY 1,49.244287,-123.045657,ZN 99, ,0,
1826,51812,NB ELLIOTT ST FS WAVERLEY AVE,ELLIOTT ST @ WAVERLEY AVE,49.227113,-123.054592,ZN 99, ,0,
12050,61825,NB CLARENDON ST NS E 33 AVE,CLARENDON ST @ E 33 AVE,49.239519,-123.055375,ZN 99, ,0,
11638,50094,WB W PENDER ST FS HAMILTON ST,W PENDER ST @ HAMILTON ST,49.282472,-123.111370,ZN 99, ,0,
96,50096,WB W PENDER ST NS GRANVILLE ST,W PENDER ST @ GRANVILLE ST,49.284575,-123.114596,ZN 99, ,0,
10944,58727,STANLEY PARK LOOP BAY 1,ROSE GARDEN LANE @ BAY 1,49.300494,-123.133742,ZN 99, ,0,
1483,51471,WB W PENDER ST FS THURLOW ST,W PENDER ST @ THURLOW ST,49.287731,-123.120865,ZN 99, ,0,
1484,51472,WB W PENDER ST FS BUTE ST,W PENDER ST @ BUTE ST,49.288565,-123.123694,ZN 99, ,0,
1488,51476,WB W GEORGIA ST FS GILFORD ST,W GEORGIA ST @ GILFORD ST,49.294006,-123.135630,ZN 99, ,0,
9105,51477,WB STANLEY PARK DR NS PIPELINE RD,STANLEY PARK DR @ PIPELINE RD,49.297003,-123.136104,ZN 99, ,0,
9307,58893,WB W PENDER ST FS BURRARD ST,W PENDER ST @ BURRARD ST,49.286833,-123.118031,ZN 99, ,0,
11643,51473,WB W PENDER ST FS BROUGHTON ST,W PENDER ST @ BROUGHTON ST,49.289741,-123.127750,ZN 99, ,0,
95,50095,WB W PENDER ST FS RICHARDS ST,W PENDER ST @ RICHARDS ST,49.283818,-123.113429,ZN 99, ,0,
8035, ,WATERFRONT STN SEABUS NORTHBOUND,SEABUS STATION @ WATERFRONT STN,49.286063,-123.111306,ZN 1, ,0,12034
8036, ,LONSDALE QUAY SEABUS NORTHBOUND,SEABUS STATION @ LONSDALE QUAY,49.310115,-123.083230,ZN 2, ,0,
8037, ,LONSDALE QUAY SEABUS SOUTHBOUND,SEABUS STATION @ LONSDALE QUAY,49.310160,-123.083358,ZN 2, ,0,
8038, ,WATERFRONT STN SEABUS SOUTHBOUND,SEABUS STATION @ WATERFRONT STN,49.286137,-123.111403,ZN 1, ,0,12034
3067,53035,COQUITLAM CENTRAL STN BAY 4,COQUITLAM CENTRAL STN @ BAY 4,49.275171,-122.798783,ZN 99, ,0,
12213,59961,WB DOMINION AVE FS FREMONT CONNECTOR,DOMINION AVE @ FREMONT CONNECTOR,49.258465,-122.729347,ZN 99, ,0,
3825,53786,EB LOUGHEED HWY FS SHAUGHNESSY ST,LOUGHEED HWY @ SHAUGHNESSY ST,49.266862,-122.775365,ZN 99, ,0,
7644,57571,EB LOUGHEED HWY FS OXFORD ST,LOUGHEED HWY @ OXFORD ST,49.263214,-122.766579,ZN 99, ,0,
7645,57572,EB LOUGHEED HWY FS COAST MERIDIAN RD,LOUGHEED HWY @ COAST MERIDIAN RD,49.259401,-122.757446,ZN 99, ,0,
7646,57573,EB LOUGHEED HWY FS OTTAWA ST,LOUGHEED HWY @ OTTAWA ST,49.255084,-122.747263,ZN 99, ,0,
12248,60039,EB SHERLING AVE FS HAWKINS ST,SHERLING AVE @ HAWKINS ST,49.253531,-122.737933,ZN 99, ,0,
12249,60037,NB FREMONT CONNECTOR FS SHERLING AVE,FREMONT CONNECTOR @ SHERLING AVE,49.253675,-122.733656,ZN 99, ,0,
12250,60035,NB FREMONT CONNECTOR FS NICOLA AVE,FREMONT CONNECTOR @ NICOLA AVE,49.254764,-122.730948,ZN 99, ,0,
12251,60033,NB FREMONT CONNECTOR FS SEABORNE PLACE,FREMONT CONNECTOR @ SEABORNE PL,49.256155,-122.728692,ZN 99, ,0,
12258,60028,WB DOMINION AVE FS AVON PLACE,DOMINION AVE @ AVON PL,49.258463,-122.738112,ZN 99, ,0,
12259,60027,WB DOMINION AVE NS OTTAWA ST,DOMINION AVE @ OTTAWA ST,49.258454,-122.745838,ZN 99, ,0,
9357,58763,EB RIVERSIDE DR FS OTTAWA ST,RIVERSIDE DR @ OTTAWA ST,49.260692,-122.745571,ZN 99, ,0,
9358,58764,EB RIVERSIDE DR FS NILE GATE,RIVERSIDE DR @ NILE GATE,49.261037,-122.743261,ZN 99, ,0,
9360,58689,NB RIVERSIDE DR FS RIVERWOOD GATE,RIVERSIDE DR @ RIVERWOOD GATE,49.264247,-122.742182,ZN 99, ,0,
9361,58685,EB RIVERSIDE DR FS ELBOW PL,RIVERSIDE DR @ ELBOW PL,49.267115,-122.739320,ZN 99, ,0,
9362,58690,EB RIVERSIDE DR FS SKEENA ST,RIVERSIDE DR @ SKEENA ST,49.267192,-122.736469,ZN 99, ,0,
9281,58682,WB PRAIRIE AVE FS FREMONT ST,PRAIRIE AVE @ FREMONT ST,49.271378,-122.734232,ZN 99, ,0,
9363,58684,WB PRAIRIE AVE FS SKEENA ST,PRAIRIE AVE @ SKEENA ST,49.271331,-122.737667,ZN 99, ,0,
3852,53813,WB PRAIRIE AVE FS CEDAR DR,PRAIRIE AVE @ CEDAR DR,49.271301,-122.740269,ZN 99, ,0,
3853,53814,WB PRAIRIE AVE FS FINLEY ST,PRAIRIE AVE @ FINLEY ST,49.271299,-122.743446,ZN 99, ,0,
3854,53815,WB PRAIRIE AVE FS NEWBERRY ST,PRAIRIE AVE @ NEWBERRY ST,49.271280,-122.748121,ZN 99, ,0,
3855,53816,WB PRAIRIE AVE FS TORONTO ST,PRAIRIE AVE @ TORONTO ST,49.271271,-122.753630,ZN 99, ,0,
3856,53817,WB PRAIRIE AVE NS SEFTON ST,PRAIRIE AVE @ SEFTON ST,49.271253,-122.757413,ZN 99, ,0,
3857,53818,WB PRAIRIE AVE FS WELLINGTON ST,PRAIRIE AVE @ WELLINGTON ST,49.271236,-122.762109,ZN 99, ,0,
3858,53819,WB PRAIRIE AVE FS YORK ST,PRAIRIE AVE @ YORK ST,49.271225,-122.764825,ZN 99, ,0,
9371,58793,NB OXFORD ST FS PRAIRIE AVE,OXFORD ST @ PRAIRIE AVE,49.271578,-122.767085,ZN 99, ,0,
9372,58786,NB OXFORD ST FS LAURIER AVE,OXFORD ST @ LAURIER AVE,49.274954,-122.767153,ZN 99, ,0,
3865,58167,SB SHAUGHNESSY ST FS LINCOLN AVE,SHAUGHNESSY ST @ LINCOLN AVE,49.278288,-122.773254,ZN 99, ,0,
3866,53827,SB SHAUGHNESSY ST NS PATRICIA AVE,SHAUGHNESSY ST @ PATRICIA AVE,49.277128,-122.773496,ZN 99, ,0,
3867,53828,SB SHAUGHNESSY ST NS DORSET AVE,SHAUGHNESSY ST @ DORSET AVE,49.274163,-122.775046,ZN 99, ,0,
3868,53829,SB SHAUGHNESSY ST FS PRAIRIE AVE,SHAUGHNESSY ST @ PRAIRIE AVE,49.270750,-122.775379,ZN 99, ,0,
3065,53033,WB LOUGHEED HWY FS HASTINGS ST,LOUGHEED HWY @ HASTINGS ST,49.270604,-122.783365,ZN 99, ,0,
3066,53034,WB LOUGHEED HWY FS WESTWOOD ST,LOUGHEED HWY @ WESTWOOD ST,49.274251,-122.791892,ZN 99, ,0,
3869,53830,SB SHAUGHNESSY ST FS FRASER AVE,SHAUGHNESSY ST @ FRASER AVE,49.268911,-122.775442,ZN 99, ,0,
12309,60030,WB DOMINION AVE AT 500 BLOCK,DOMINION AVE @ 500 BLOCK,49.258461,-122.734395,ZN 99, ,0,
12333,59263,WB LINCOLN AVE FS OXFORD ST,LINCOLN AVE @ OXFORD ST,49.278437,-122.767737,ZN 99, ,0,
4154,54111,WB SECHELT DR FS HYANNIS DR,SECHELT DR @ HYANNIS DR,49.326495,-122.995618,ZN 99, ,0,
4155,54112,WB SECHELT DR FS DERBYSHIRE WAY,SECHELT DR @ DERBYSHIRE WAY,49.326123,-123.000642,ZN 99, ,0,
4156,54113,WB SECHELT DR NS BERKLEY AVE,SECHELT DR @ BERKLEY AVE,49.326460,-123.004103,ZN 99, ,0,
4157,54114,SB BERKLEY RD AT BYRON RD,BERKLEY RD @ BYRON RD,49.323477,-123.004998,ZN 99, ,0,
4158,54115,SB BERKLEY RD AT SHELLEY RD,BERKLEY RD @ SHELLEY RD,49.320973,-123.005030,ZN 99, ,0,
4159,54116,EB CARNATION ST FS BERKLEY RD,CARNATION ST @ BERKLEY RD,49.318082,-123.004436,ZN 99, ,0,
4160,54117,SB EMERSON WAY FS CARNATION ST,EMERSON WAY @ CARNATION ST,49.317586,-122.998202,ZN 99, ,0,
4161,54118,SB EMERSON WAY NS MT SEYMOUR PARKWAY,EMERSON WAY @ MT SEYMOUR PARKWAY,49.316192,-122.998190,ZN 99, ,0,
4113,54792,WB MT SEYMOUR PARKWAY FS LYTTON ST,MT SEYMOUR PARKWAY @ LYTTON ST,49.315032,-123.002170,ZN 99, ,0,
4114,54072,WB MT SEYMOUR PARKWAY NS BERKLEY RD,MT SEYMOUR PARKWAY @ BERKLEY RD,49.314106,-123.004292,ZN 99, ,0,
4115,54073,WB MT SEYMOUR PARKWAY FS BROWNING PL,MT SEYMOUR PARKWAY @ BROWNING PL,49.311724,-123.008112,ZN 99, ,0,
4116,54074,WB MT SEYMOUR PARKWAY NS RIVERSIDE DR,MT SEYMOUR PARKWAY @ RIVERSIDE DR,49.311174,-123.013876,ZN 99, ,0,
4118,54076,WB MT SEYMOUR PARKWAY FS SEYMOUR BLVD,MT SEYMOUR PARKWAY @ SEYMOUR BLVD,49.312087,-123.021752,ZN 99, ,0,
4067,54026,PHIBBS EXCHANGE BAY 4,PHIBBS EXCHANGE @ BAY 4,49.305640,-123.029001,ZN 99, ,0,
4171,54127,NB INLET CRES NS INDIAN RIVER DR,INLET CRES @ INDIAN RIVER DR,49.321540,-122.962341,ZN 99, ,0,
8861,58457,EB DOLLARTON HWY FS RIVERSIDE DR,DOLLARTON HWY @ RIVERSIDE DR,49.305569,-123.013425,ZN 99, ,0,
4122,54080,EB DOLLARTON HWY AT 2400 BLOCK,DOLLARTON HWY @ 2400 BLOCK,49.307612,-123.006104,ZN 99, ,0,
4164,54120,NB ELLIS ST FS DOLLARTON HWY,ELLIS ST @ DOLLARTON HWY,49.309262,-122.994019,ZN 99, ,0,
4165,54121,EB PLYMOUTH DR FS ELLIS ST,PLYMOUTH DR @ ELLIS ST,49.310739,-122.994960,ZN 99, ,0,
4166,54122,EB PLYMOUTH DR AT EDDYSTONE CRES,PLYMOUTH DR @ EDDYSTONE CRES,49.311288,-122.993698,ZN 99, ,0,
4167,54123,NB PLYMOUTH DR FS FAIRFIELD RD,PLYMOUTH DR @ FAIRFIELD RD,49.313461,-122.992357,ZN 99, ,0,
9040,58332,EB PLYMOUTH DR FS FAIRFIELD RD,PLYMOUTH DR @ FAIRFIELD RD,49.315084,-122.989243,ZN 99, ,0,
4077,54036,EB MT SEYMOUR PARKWAY NS STRATHAVEN DR,MT SEYMOUR PARKWAY @ STRATHAVEN DR,49.315556,-122.986432,ZN 99, ,0,
4078,54037,EB MT SEYMOUR PARKWAY FS APEX AVE,MT SEYMOUR PARKWAY @ APEX AVE,49.315498,-122.979439,ZN 99, ,0,
4079,54038,EB MT SEYMOUR PARKWAY FS PARKGATE AVE,MT SEYMOUR PARKWAY @ PARKGATE AVE,49.315680,-122.973649,ZN 99, ,0,
4168,54124,NB MT SEYMOUR RD FS MT SEYMOUR PARKWAY,MT SEYMOUR RD @ MT SEYMOUR PARKWAY,49.316552,-122.968826,ZN 99, ,0,
4169,54125,NB MT SEYMOUR RD NS HAMBER PL,MT SEYMOUR RD @ HAMBER PL,49.319201,-122.968810,ZN 99, ,0,
4170,54126,EB INDIAN RIVER DR FS LIGHTHALL COURT,INDIAN RIVER DR @ LIGHTHALL COURT,49.321276,-122.964881,ZN 99, ,0,
4121,58456,EB DOLLARTON HWY FS FORESTER ST,DOLLARTON HWY @ FORESTER ST,49.306225,-123.010315,ZN 99, ,0,
9039,58331,EB DOLLARTON HWY AT 2600 BLOCK,DOLLARTON HWY @ 2600 BLOCK,49.308090,-123.001640,ZN 99, ,0,
4068,58492,EB OLD DOLLARTON RD FS FRONT ST,OLD DOLLARTON RD @ FRONT ST,49.306495,-123.018117,ZN 99, ,0,
4120,58459,EB OLD DOLLARTON RD NS RIVERSIDE DR,OLD DOLLARTON RD @ RIVERSIDE DR,49.307472,-123.015516,ZN 99, ,0,
10873,61011,PHIBBS EXCHANGE BAY 6,PHIBBS EXCHANGE @ BAY 6,49.305869,-123.029008,ZN 99, ,0,
10962,60720,EB INDIAN RIVER DR FS MT SEYMOUR RD,INDIAN RIVER DR @ MT SEYMOUR RD,49.321310,-122.967913,ZN 99, ,0,
3479,53441,WB WILSON AVE FS MARY HILL RD,WILSON AVE @ MARY HILL RD,49.260938,-122.779123,ZN 99, ,0,
10387,59661,WB BARNET RD FS CARIBOO RD,BARNET RD @ CARIBOO RD,49.287912,-122.915261,ZN 99, ,0,
8691,58430,LOUGHEED STN BAY 6,LOUGHEED STN @ BAY 6,49.247392,-122.894681,ZN 99, ,0,
3169,53136,SB WASHINGTON DR NS YALE RD,WASHINGTON DR @ YALE RD,49.285113,-122.871147,ZN 99, ,0,
10860,58945,MOODY CENTRE STN BAY 1 UNLOADING ONLY,MOODY CENTRE STN @ BAY 1,49.277682,-122.845305,WCE2Z, ,0,
3150,58191,NB NORTH RD FS GATINEAU PL,NORTH RD @ GATINEAU PL,49.248513,-122.892660,ZN 99, ,0,
2891,52861,NB NORTH RD FS AUSTIN AVE,NORTH RD @ AUSTIN AVE,49.250068,-122.892696,ZN 99, ,0,
3151,53118,NB NORTH RD NS CAMERON ST,NORTH RD @ CAMERON ST,49.253128,-122.892770,ZN 99, ,0,
3152,53119,NB NORTH RD AT 600 BLOCK,NORTH RD @ 600 BLOCK,49.255306,-122.892801,ZN 99, ,0,
3153,53120,NB NORTH RD FS FOSTER AVE,NORTH RD @ FOSTER AVE,49.257165,-122.892856,ZN 99, ,0,
3154,53121,NB NORTH RD NS COTTONWOOD AVE,NORTH RD @ COTTONWOOD AVE,49.258548,-122.892887,ZN 99, ,0,
3155,59531,BURQUITLAM STN BAY 5,BURQUITLAM STN @ BAY 5,49.261654,-122.889806,ZN 99, ,0,
3156,53123,NB CLARKE RD FS COMO LAKE AVE,CLARKE RD @ COMO LAKE AVE,49.264028,-122.886789,ZN 99, ,0,
3157,53124,NB CLARKE RD FS MORRISON AVE,CLARKE RD @ MORRISON AVE,49.265996,-122.884262,ZN 99, ,0,
3158,53125,NB CLARKE RD NS ROBINSON ST,CLARKE RD @ ROBINSON ST,49.268703,-122.880871,ZN 99, ,0,
3160,53127,NB GLENAYRE DR FS CLARKE RD,GLENAYRE DR @ CLARKE RD,49.270410,-122.879877,ZN 99, ,0,
3161,53128,NB GLENAYRE DR NS GLENACRE COURT,GLENAYRE DR @ GLENACRE COURT,49.273116,-122.880481,ZN 99, ,0,
3162,53129,NB GLENAYRE DR FS MOUNT ROYAL DR,GLENAYRE DR @ MOUNT ROYAL DR,49.275283,-122.880602,ZN 99, ,0,
3163,53130,NB GLENAYRE DR FS VALOUR DR,GLENAYRE DR @ VALOUR DR,49.276612,-122.880678,ZN 99, ,0,
3164,53131,NB GLENAYRE DR FS ANGELA DR,GLENAYRE DR @ ANGELA DR,49.279150,-122.880836,ZN 99, ,0,
3165,53132,NB PRINCETON AVE FS HARVARD DR,PRINCETON AVE @ HARVARD DR,49.283167,-122.876893,ZN 99, ,0,
3166,53133,NB PRINCETON AVE NS MCGILL DR,PRINCETON AVE @ MCGILL DR,49.285268,-122.876287,ZN 99, ,0,
3167,53134,EB WASHINGTON DR AT 834,WASHINGTON DR @ 800 BLOCK,49.287802,-122.873455,ZN 99, ,0,
3168,53135,EB WASHINGTON DR AT 800 BLOCK,WASHINGTON DR @ 800 BLOCK,49.286765,-122.872151,ZN 99, ,0,
3170,53137,SB COLLEGE PARK WAY NS OXFORD DR,COLLEGE PARK WAY @ OXFORD DR,49.283358,-122.871398,ZN 99, ,0,
3172,53139,SB CECILE DR NS EVERGREEN DR,CECILE DR @ EVERGREEN DR,49.280889,-122.875083,ZN 99, ,0,
3173,53140,SB CECILE DR FS ANGELA DR,CECILE DR @ ANGELA DR,49.278403,-122.875582,ZN 99, ,0,
3174,53141,EB CECILE DR AT 1000 BLOCK,CECILE DR @ 1000 BLOCK,49.275792,-122.874737,ZN 99, ,0,
3175,53142,EB CECILE DR AT HIGHVIEW PL,CECILE DR @ HIGHVIEW PL,49.274940,-122.872484,ZN 99, ,0,
8845,58227,EB SAINT JOHNS ST NS ALBERT ST,SAINT JOHNS ST @ ALBERT ST,49.276527,-122.867099,ZN 99, ,0,
11941,61891,MOODY CENTRE STN BAY 6,MOODY CENTRE STN @ BAY 6,49.277834,-122.846836,ZN 99, ,0,
3227,53193,NB WASHINGTON DR FS YALE RD,WASHINGTON DR @ YALE RD,49.285097,-122.871016,ZN 99, ,0,
3218,53184,WB SAINT JOHNS ST FS MOODY ST,SAINT JOHNS ST @ MOODY ST,49.276792,-122.850785,ZN 99, ,0,
3219,53185,WB SAINT JOHNS ST FS QUEENS ST,SAINT JOHNS ST @ QUEENS ST,49.276788,-122.859242,ZN 99, ,0,
3220,53186,WB SAINT JOHNS ST FS ELGIN ST,SAINT JOHNS ST @ ELGIN ST,49.276752,-122.862260,ZN 99, ,0,
3221,53187,WB SAINT JOHNS ST FS BARNET HWY,SAINT JOHNS ST @ BARNET HWY,49.276694,-122.867831,ZN 99, ,0,
3222,53188,WB CECILE DR FS HIGHVIEW PL,CECILE DR @ HIGHVIEW PL,49.275130,-122.872689,ZN 99, ,0,
3223,53189,WB CECILE DR AT 1000 BLOCK,CECILE DR @ 1000 BLOCK,49.275949,-122.874830,ZN 99, ,0,
3224,53190,NB CECILE DR FS CECILE PL,CECILE DR @ CECILE PL,49.278128,-122.875415,ZN 99, ,0,
3225,53191,NB CECILE DR FS EVERGREEN DR,CECILE DR @ EVERGREEN DR,49.280945,-122.874880,ZN 99, ,0,
3226,53192,NB COLLEGE PARK WAY FS OXFORD DR,COLLEGE PARK WAY @ OXFORD DR,49.283349,-122.871203,ZN 99, ,0,
3228,53194,WB WASHINGTON DR AT 800 BLOCK,WASHINGTON DR @ 800 BLOCK,49.286816,-122.872061,ZN 99, ,0,
3229,53195,WB WASHINGTON DR AT 834,WASHINGTON DR @ 800 BLOCK,49.287850,-122.873349,ZN 99, ,0,
3230,53196,WB WASHINGTON DR NS PRINCETON AVE,WASHINGTON DR @ PRINCETON AVE,49.288367,-122.876048,ZN 99, ,0,
3231,53197,SB PRINCETON AVE FS YALE RD,PRINCETON AVE @ YALE RD,49.286064,-122.876340,ZN 99, ,0,
3232,53198,SB PRINCETON AVE NS MCMASTER COURT,PRINCETON AVE @ MCMASTER COURT,49.284484,-122.876649,ZN 99, ,0,
3233,53199,SB PRINCETON AVE NS HARVARD DR,PRINCETON AVE @ HARVARD DR,49.282802,-122.877245,ZN 99, ,0,
3234,53200,SB GLENAYRE DR FS COLLEGE PARK WAY,GLENAYRE DR @ COLLEGE PARK WAY,49.280955,-122.880443,ZN 99, ,0,
3235,53201,SB GLENAYRE DR FS ANGELA DR,GLENAYRE DR @ ANGELA DR,49.277989,-122.880932,ZN 99, ,0,
3236,53202,SB GLENAYRE DR FS VALOUR DR,GLENAYRE DR @ VALOUR DR,49.276139,-122.880829,ZN 99, ,0,
3237,53203,SB GLENAYRE DR FS GLENCOE DR,GLENAYRE DR @ GLENCOE DR,49.274307,-122.880731,ZN 99, ,0,
3238,53204,SB GLENAYRE DR FS CAITHNESS CRES,GLENAYRE DR @ CAITHNESS CRES,49.271667,-122.880578,ZN 99, ,0,
3239,53205,SB CLARKE RD FS GLENAYRE DR,CLARKE RD @ GLENAYRE DR,49.269724,-122.879865,ZN 99, ,0,
3240,53206,SB CLARKE RD FS THOMPSON AVE,CLARKE RD @ THOMPSON AVE,49.268146,-122.881927,ZN 99, ,0,
3241,53207,SB CLARKE RD FS KEMSLEY AVE,CLARKE RD @ KEMSLEY AVE,49.266346,-122.884100,ZN 99, ,0,
3242,53208,SB CLARKE RD FS COMO LAKE AVE,CLARKE RD @ COMO LAKE AVE,49.262810,-122.888641,ZN 99, ,0,
3243,53209,BURQUITLAM STN BAY 6,BURQUITLAM STN @ BAY 6,49.261500,-122.890340,ZN 99, ,0,
3244,53210,SB NORTH RD FS COTTONWOOD AVE,NORTH RD @ COTTONWOOD AVE,49.258374,-122.893206,ZN 99, ,0,
3245,53211,SB NORTH RD FS FOSTER AVE,NORTH RD @ FOSTER AVE,49.255871,-122.893156,ZN 99, ,0,
9008,58630,SB NORTH RD AT 500 BLOCK,NORTH RD @ 500 BLOCK,49.250209,-122.893017,ZN 99, ,0,
3248,53214,SB NORTH RD FS AUSTIN RD,NORTH RD @ AUSTIN RD,49.248476,-122.892999,ZN 99, ,0,
11307,53212,SB NORTH RD FS CAMERON ST,NORTH RD @ CAMERON ST,49.252378,-122.893163,ZN 99, ,0,
12214,59971,SB FREMONT CONNECTOR FS DOMINION AVE,FREMONT ST @ DOMINION AVE,49.258056,-122.728837,ZN 99, ,0,
3872,53832,NB SHAUGHNESSY ST FS FRASER AVE,SHAUGHNESSY ST @ FRASER AVE,49.269579,-122.775187,ZN 99, ,0,
9257,58775,NB SHAUGHNESSY ST FS PRAIRIE AVE,SHAUGHNESSY ST @ PRAIRIE AVE,49.271504,-122.775157,ZN 99, ,0,
9386,58811,NB SHAUGHNESSY ST FS DORSET AVE,SHAUGHNESSY ST @ DORSET AVE,49.274171,-122.774844,ZN 99, ,0,
9387,58812,NB SHAUGHNESSY ST FS CENTENNIAL AVE,SHAUGHNESSY ST @ CENTENNIAL AVE,49.276253,-122.773661,ZN 99, ,0,
9388,58692,NB SHAUGHNESSY ST FS STIRLING AVE,SHAUGHNESSY ST @ STIRLING AVE,49.277901,-122.773075,ZN 99, ,0,
9369,58788,SB OXFORD ST FS LINCOLN AVE,OXFORD ST @ LINCOLN AVE,49.278070,-122.767305,ZN 99, ,0,
9370,58801,SB OXFORD ST FS LAURIER AVE,OXFORD ST @ LAURIER AVE,49.275148,-122.767245,ZN 99, ,0,
3875,53835,EB PRAIRIE AVE FS OXFORD ST,PRAIRIE AVE @ OXFORD ST,49.271089,-122.766778,ZN 99, ,0,
3876,53836,EB PRAIRIE AVE FS YORK ST,PRAIRIE AVE @ YORK ST,49.271102,-122.764009,ZN 99, ,0,
3877,53837,EB PRAIRIE AVE FS WELLINGTON ST,PRAIRIE AVE @ WELLINGTON ST,49.271108,-122.761200,ZN 99, ,0,
3878,53838,EB PRAIRIE AVE FS COAST MERIDIAN RD,PRAIRIE AVE @ COAST MERIDIAN RD,49.271106,-122.755185,ZN 99, ,0,
3879,53839,EB PRAIRIE AVE FS KILMER ST,PRAIRIE AVE @ KILMER ST,49.271159,-122.748621,ZN 99, ,0,
3880,53840,EB PRAIRIE AVE FS NORFOLK ST,PRAIRIE AVE @ NORFOLK ST,49.271172,-122.744239,ZN 99, ,0,
3881,53841,EB PRAIRIE AVE NS CEDAR DR,PRAIRIE AVE @ CEDAR DR,49.271165,-122.740786,ZN 99, ,0,
9349,58683,EB PRAIRIE AVE FS SKEENA ST,PRAIRIE AVE @ SKEENA ST,49.271204,-122.737215,ZN 99, ,0,
9350,58681,EB PRAIRIE AVE NS FREMONT ST,PRAIRIE AVE @ FREMONT ST,49.271212,-122.734269,ZN 99, ,0,
9352,58697,SB FREMONT ST NS RIVERSIDE DR,FREMONT ST @ RIVERSIDE DR,49.267662,-122.733889,ZN 99, ,0,
9354,58691,WB RIVERSIDE DR FS SKEENA ST,RIVERSIDE DR @ SKEENA ST,49.267321,-122.737235,ZN 99, ,0,
9347,58687,WB RIVERSIDE DR FS NECHAKO CRES,RIVERSIDE DR @ NECHAKO CRES,49.267206,-122.739999,ZN 99, ,0,
9348,58688,SB RIVERSIDE DR FS PARANA DR,RIVERSIDE DR @ PARANA DR,49.266001,-122.742272,ZN 99, ,0,
9355,58987,SB RIVERSIDE DR NS RIVERWOOD GATE,RIVERSIDE DR @ RIVERWOOD GATE,49.264586,-122.742338,ZN 99, ,0,
10604,59604,SB RIVERSIDE DR NS RIVERSIDE CLOSE,RIVERSIDE DR @ RIVERSIDE CLOSE,49.262509,-122.742419,ZN 99, ,0,
12256,60026,EB DOMINION AVE FS OTTAWA ST,DOMINION AVE @ OTTAWA ST,49.258326,-122.745980,ZN 99, ,0,
12257,60029,EB DOMINION AVE FS HAWKINS ST,DOMINION AVE @ HAWKINS ST,49.258333,-122.737418,ZN 99, ,0,
12302,58693,EB LINCOLN AVE FS FLINT ST,LINCOLN AVE @ FLINT ST,49.278384,-122.770086,ZN 99, ,0,
12308,60031,EB DOMINION AVE FS FREMONT ST,DOMINION AVE @ FREMONT ST,49.258333,-122.733664,ZN 99, ,0,
9356,58777,SB OTTAWA ST FS RIVERSIDE DR,OTTAWA ST @ RIVERSIDE DR,49.260388,-122.746578,ZN 99, ,0,
11654,61595,WB LOUGHEED HWY FS SHERLING AVE,LOUGHEED HWY @ SHERLING AVE,49.253668,-122.742982,ZN 99, ,0,
8408,57667,WB LOUGHEED HWY FS OTTAWA ST,LOUGHEED HWY @ OTTAWA ST,49.256074,-122.748652,ZN 99, ,0,
11318,61291,WB LOUGHEED HWY FS DOMINION AVE,LOUGHEED HWY @ DOMINION AVE,49.258331,-122.753993,ZN 99, ,0,
3903,53863,WB LOUGHEED HWY FS OXFORD ST,LOUGHEED HWY @ OXFORD ST,49.264090,-122.767959,ZN 99, ,0,
7742,59189,WB LOUGHEED HWY NS SHAUGHNESSY ST,LOUGHEED HWY @ SHAUGHNESSY ST,49.267173,-122.775315,ZN 99, ,0,
12252,60032,SB FREMONT CONNECTOR FS SEABORNE PLACE,FREMONT CONNECTOR @ SEABORNE PL,49.255866,-122.729124,ZN 99, ,0,
12253,60034,SB FREMONT CONNECTOR FS NICOLA AVE,FREMONT CONNECTOR @ NICOLA AVE,49.254644,-122.732052,ZN 99, ,0,
12254,60036,WB SHERLING AVE FS FREMONT CONNECTOR,SHERLING AVE @ FREMONT CONNECTOR,49.253660,-122.734664,ZN 99, ,0,
12255,60038,WB SHERLING AVE FS HAWKINS ST,SHERLING AVE @ HAWKINS ST,49.253720,-122.738890,ZN 99, ,0,
779,50772,EB E BROADWAY FS KINGSWAY,E BROADWAY @ KINGSWAY,49.262719,-123.098055,ZN 99, ,0,
234,50232,SB MAIN ST FS NATIONAL AVE,MAIN ST @ NATIONAL AVE,49.274506,-123.100141,ZN 99, ,0,
235,50233,SB MAIN ST NS TERMINAL AVE,MAIN ST @ TERMINAL AVE,49.273072,-123.100189,ZN 99, ,0,
9067,58510,SB MAIN ST FS E 5 AVE-,MAIN ST @ E 5 AVE,49.266106,-123.100973,ZN 99, ,0,
778,50771,EB KINGSWAY FS MAIN ST,KINGSWAY @ MAIN ST,49.263824,-123.100514,ZN 99, ,0,
780,50773,EB E BROADWAY FS PRINCE EDWARD ST,E BROADWAY @ PRINCE EDWARD ST,49.262454,-123.095524,ZN 99, ,0,
781,50774,EB E BROADWAY FS SAINT GEORGE ST,E BROADWAY @ SAINT GEORGE ST,49.262402,-123.092514,ZN 99, ,0,
782,50775,SB FRASER ST FS E BROADWAY,FRASER ST @ E BROADWAY,49.262021,-123.089232,ZN 99, ,0,
783,50776,SB FRASER ST FS E 11 AVE,FRASER ST @ E 11 AVE,49.260320,-123.089275,ZN 99, ,0,
784,50777,SB FRASER ST FS E 13 AVE,FRASER ST @ E 13 AVE,49.258479,-123.089284,ZN 99, ,0,
785,50778,SB FRASER ST FS E 16 AVE,FRASER ST @ E 16 AVE,49.256110,-123.090058,ZN 99, ,0,
787,50780,SB FRASER ST FS E 21 AVE,FRASER ST @ E 21 AVE,49.251620,-123.090186,ZN 99, ,0,
788,50781,SB FRASER ST FS E 23 AVE,FRASER ST @ E 23 AVE,49.249808,-123.090246,ZN 99, ,0,
789,50782,SB FRASER ST FS E KING EDWARD AVE,FRASER ST @ E KING EDWARD AVE,49.248306,-123.090273,ZN 99, ,0,
790,50783,SB FRASER ST FS E 27 AVE,FRASER ST @ E 27 AVE,49.246305,-123.090308,ZN 99, ,0,
791,50784,SB FRASER ST FS E 29 AVE,FRASER ST @ E 29 AVE,49.244247,-123.090388,ZN 99, ,0,
792,58954,SB FRASER ST FS E 31 AVE,FRASER ST @ E 31 AVE,49.242261,-123.090417,ZN 99, ,0,
793,50786,SB FRASER ST FS E 33 AVE,FRASER ST @ E 33 AVE,49.239976,-123.090476,ZN 99, ,0,
794,50787,SB FRASER ST FS E 35 AVE,FRASER ST @ E 35 AVE,49.238045,-123.090514,ZN 99, ,0,
795,50788,SB FRASER ST FS E 37 AVE,FRASER ST @ E 37 AVE,49.236049,-123.090613,ZN 99, ,0,
796,50789,SB FRASER ST FS E 39 AVE,FRASER ST @ E 39 AVE,49.234521,-123.090651,ZN 99, ,0,
798,50791,SB FRASER ST FS E 43 AVE,FRASER ST @ E 43 AVE,49.230719,-123.090713,ZN 99, ,0,
799,50792,SB FRASER ST FS E 45 AVE,FRASER ST @ E 45 AVE,49.228897,-123.090762,ZN 99, ,0,
800,50793,SB FRASER ST FS E 47 AVE,FRASER ST @ E 47 AVE,49.227099,-123.090813,ZN 99, ,0,
801,50794,SB FRASER ST FS E 49 AVE,FRASER ST @ E 49 AVE,49.225133,-123.090918,ZN 99, ,0,
802,50795,SB FRASER ST FS E 51 AVE,FRASER ST @ E 51 AVE,49.223292,-123.090958,ZN 99, ,0,
803,50796,SB FRASER ST FS E 53 AVE,FRASER ST @ E 53 AVE,49.221480,-123.091000,ZN 99, ,0,
804,50797,SB FRASER ST FS E 55 AVE,FRASER ST @ E 55 AVE,49.219642,-123.091056,ZN 99, ,0,
805,50798,SB FRASER ST FS E 57 AVE,FRASER ST @ E 57 AVE,49.217937,-123.091092,ZN 99, ,0,
806,50799,SB FRASER ST FS E 59 AVE,FRASER ST @ E 59 AVE,49.216234,-123.091124,ZN 99, ,0,
807,50800,SB FRASER ST FS E 61 AVE,FRASER ST @ E 61 AVE,49.214571,-123.091155,ZN 99, ,0,
808,50801,SB FRASER ST FS E 63 AVE,FRASER ST @ E 63 AVE,49.212749,-123.091181,ZN 99, ,0,
797,50790,SB FRASER ST FS E 41 AVE,FRASER ST @ E 41 AVE,49.232478,-123.090705,ZN 99, ,0,
12036,61917,WB W PENDER ST NS HOWE ST BAY 1,W PENDER ST @ HOWE ST,49.285131,-123.115432,ZN 99, ,0,
10814,59580,SB MAIN ST FS E 2 AVE,MAIN ST @ E 2 AVE,49.268688,-123.100898,ZN 99, ,0,
36,50036,EB W CORDOVA ST FS HOMER ST,W CORDOVA ST @ HOMER ST,49.283765,-123.109649,ZN 99, ,0,
229,50227,EB E CORDOVA ST FS CARRALL ST,E CORDOVA ST @ CARRALL ST,49.282323,-123.103816,ZN 99, ,0,
231,50229,SB MAIN ST FS E HASTINGS ST,MAIN ST @ E HASTINGS ST,49.280810,-123.099812,ZN 99, ,0,
11535,61519,NB SEYMOUR ST NS DUNSMUIR ST,SEYMOUR ST @ DUNSMUIR ST,49.282782,-123.115596,ZN 99, ,0,
11761,58125,EB W CORDOVA ST FS ABBOTT ST,W CORDOVA ST @ ABBOTT ST,49.282714,-123.106060,ZN 99, ,0,
236,50234,SB MAIN ST FS SWITCHMEN ST,MAIN ST @ SWITCHMEN ST,49.270621,-123.100821,ZN 99, ,0,
12148,59292,SB FRASER ST NS E 19 AVE,FRASER ST @ E 19TH AVE,49.253869,-123.090108,ZN 99, ,0,
11252,61338,MARINE DRIVE STN BAY 2,MARINE DRIVE STATION LOOP @ BAY 2,49.209383,-123.116116,ZN 99, ,0,
9103,58647,WB SE MARINE DR NS POPLAR ST,SE MARINE DR @ POPLAR ST,49.211133,-123.092844,ZN 99, ,0,
2232,52210,WB SE MARINE DR FS BUSCOMBE ST,SE MARINE DR @ BUSCOMBE ST,49.211151,-123.095708,ZN 99, ,0,
2233,52211,WB SE MARINE DR NS PRINCE EDWARD ST,SE MARINE DR @ PRINCE EDWARD ST,49.211024,-123.097713,ZN 99, ,0,
2234,52212,WB SE MARINE DR FS MAIN  ST,SE MARINE DR @ MAIN ST,49.211354,-123.102616,ZN 99, ,0,
2235,52213,WB SW MARINE DR FS ONTARIO ST,SW MARINE DR @ ONTARIO ST,49.212459,-123.107012,ZN 99, ,0,
2236,52214,WB SW MARINE DR FS MANITOBA ST,SW MARINE DR @ MANITOBA ST,49.212212,-123.110409,ZN 99, ,0,
809,50802,SB FRASER ST FS E 65 AVE,FRASER ST @ E 65 AVE,49.211508,-123.091218,ZN 99, ,0,
232,50230,SB MAIN ST FS KEEFER ST,MAIN ST @ KEEFER ST,49.279034,-123.099912,ZN 99, ,0,
230,50228,EB E CORDOVA ST NS MAIN ST,E CORDOVA ST @ MAIN ST,49.282234,-123.100004,ZN 99, ,0,
35,50035,EB W CORDOVA ST FS SEYMOUR ST,W CORDOVA ST @ SEYMOUR ST,49.284949,-123.111394,ZN 99, ,0,
3827,53788,NB OXFORD ST NS COQUITLAM AVE,OXFORD ST @ COQUITLAM AVE,49.267032,-122.767071,ZN 99, ,0,
3828,53789,EB COQUITLAM AVE FS YORK ST,COQUITLAM AVE @ YORK ST,49.267336,-122.763783,ZN 99, ,0,
3829,53790,EB COQUITLAM AVE FS WELLINGTON ST,COQUITLAM AVE @ WELLINGTON ST,49.267360,-122.761244,ZN 99, ,0,
10141,59479,NB COAST MERIDIAN RD FS COQUITLAM AVE,COAST MERIDIAN RD @ COQUITLAM AVE,49.267675,-122.755999,ZN 99, ,0,
3882,53842,NB CEDAR DR FS PINEMONT AVE,CEDAR DR @ PINEMONT AVE,49.274238,-122.739035,ZN 99, ,0,
3883,53843,NB CEDAR DR FS LINCOLN AVE,CEDAR DR @ LINCOLN AVE,49.278726,-122.738527,ZN 99, ,0,
3884,53844,NB CEDAR DR FS CHELSEA AVE,CEDAR DR @ CHELSEA AVE,49.282430,-122.738360,ZN 99, ,0,
3885,53845,WB VICTORIA DR NS ROCKLIN ST,VICTORIA DR @ ROCKLIN ST,49.285799,-122.737912,ZN 99, ,0,
3478,53440,PORT COQUITLAM STN BAY 2,PORT COQUITLAM STN @ BAY 2,49.261177,-122.773908,ZN 99, ,0,
12018,61750,EB DEWDNEY TRUNK RD FS LOUGHEED HWY,DEWDNEY TRUNK RD @ LOUGHEED HWY,49.268018,-122.796872,ZN 99, ,0,
3381,53344,EB DEWDNEY TRUNK RD FS IRVINE ST,DEWDNEY TRUNK RD @ IRVINE ST,49.268013,-122.794351,ZN 99, ,0,
3382,53345,SB WESTWOOD ST FS DEWDNEY TRUNK RD,WESTWOOD ST @ DEWDNEY TRUNK RD,49.267485,-122.790769,ZN 99, ,0,
3383,53346,EB KINGSWAY AVE FS BURLEIGH AVE,KINGSWAY AVE @ BURLEIGH AVE,49.265320,-122.788478,ZN 99, ,0,
3384,53347,EB KINGSWAY AV FS DIXON ST,KINGSWAY AVE @ DIXON ST,49.265735,-122.786350,ZN 99, ,0,
12060,61952,EB MCALLISTER AVE FS MAPLE ST,MCALLISTER AVE @ MAPLE ST,49.263502,-122.782897,ZN 99, ,0,
3480,53442,EB MCALLISTER AVE FS SHAUGHNESSY ST,MCALLISTER AVE @ SHAUGHNESSY ST,49.262592,-122.780766,ZN 99, ,0,
3061,53029,WB WILSON AVE FS KINGSWAY AVE,WILSON AVE @ KINGSWAY AVE,49.260943,-122.776176,ZN 99, ,0,
3062,53030,WB WILSON AVE NS SHAUGHNESSY ST,WILSON AVE @ SHAUGHNESSY ST,49.260923,-122.781672,ZN 99, ,0,
9494,58959,EB MALL ACCESS RD FS SHAUGHNESSY ST,MALL ACCESS RD @ SHAUGHNESSY ST,49.265228,-122.775585,ZN 99, ,0,
10998,61078,EB OXFORD CONNECTOR AT 1900 BLOCK,OXFORD CONNECTOR @ 1900 BLOCK,49.265106,-122.771588,ZN 99, ,0,
12043,61931,EB OXFORD CONNECTOR NS OXFORD ST,OXFORD CONNECTOR @ OXFORD ST,49.263926,-122.768818,ZN 99, ,0,
3826,53787,NB OXFORD ST FS WESTMINSTER AVE,OXFORD ST @ WESTMINSTER AVE,49.265367,-122.767068,ZN 99, ,0,
3816,53777,PORT COQUITLAM STN BAY 1,PORT COQUITLAM STN @ BAY 1,49.261337,-122.774050,ZN 99, ,0,
3886,53846,WB VICTORIA DR AT 3500 BLOCK,VICTORIA DR @ 3500 BLOCK,49.285812,-122.741302,ZN 99, ,0,
3887,53847,WB VICTORIA DR FS BURKE MOUNTAIN ST,VICTORIA DR @ BURKE MOUNTAIN ST,49.285776,-122.745481,ZN 99, ,0,
9396,53848,WB VICTORIA DR NS SOBALL ST,VICTORIA DR @ SOBALL ST,49.285757,-122.749986,ZN 99, ,0,
3889,53849,WB VICTORIA DR NS TORONTO ST,VICTORIA DR @ TORONTO ST,49.285784,-122.752811,ZN 99, ,0,
3890,53850,SB COAST MERIDIAN RD FS VICTORIA DR,COAST MERIDIAN RD @ VICTORIA DR,49.284881,-122.756103,ZN 99, ,0,
3891,53851,WB GREENMOUNT AVE FS COAST MERIDIAN RD,GREENMOUNT AVE @ COAST MERIDIAN RD,49.284335,-122.756671,ZN 99, ,0,
9395,58797,NB WELLINGTON ST FS GREENMOUNT AVE,WELLINGTON ST @ GREENMOUNT AVE,49.284535,-122.761575,ZN 99, ,0,
9394,58799,NB WELLINGTON ST FS CANTERBURY LANE,WELLINGTON ST @ CANTERBURY LANE,49.286891,-122.761556,ZN 99, ,0,
3905,53865,NB WELLINGTON ST NS WELLINGTON COURT,WELLINGTON ST @ WELLINGTON COURT,49.288096,-122.761539,ZN 99, ,0,
3840,53801,NB OXFORD ST FS MASON AVE,OXFORD ST @ MASON AVE,49.289635,-122.763056,ZN 99, ,0,
3841,53802,NB OXFORD ST FS FORESTGATE PL,OXFORD ST @ FORESTGATE PL,49.291379,-122.763042,ZN 99, ,0,
3842,53803,WB DAVID AVE FS OXFORD ST,DAVID AVE @ OXFORD ST,49.293152,-122.763574,ZN 99, ,0,
3861,53822,SB SHAUGHNESSY ST FS DAVID PLACE,SHAUGHNESSY ST @ DAVID PLACE,49.292709,-122.771055,ZN 99, ,0,
3862,53823,SB SHAUGHNESSY ST FS FLYNN CRES,SHAUGHNESSY ST @ FLYNN CRES,49.291070,-122.768459,ZN 99, ,0,
3863,53824,SB SHAUGHNESSY ST FS PARKLAND DR,SHAUGHNESSY ST @ PARKLAND DR,49.288804,-122.767205,ZN 99, ,0,
3864,53825,SB SHAUGHNESSY ST FS LODGE DR,SHAUGHNESSY ST @ LODGE DR,49.286740,-122.768504,ZN 99, ,0,
12165,59421,SB SHAUGHNESSY ST NS LIONS WAY-,SHAUGHNESSY ST @ LIONS WAY,49.266588,-122.777509,ZN 99, ,0,
12074,53496,WB MCALLISTER AVE NS SHAUGHNESSY ST,MCALLISTER AVE @ SHAUGHNESSY ST,49.262733,-122.780661,ZN 99, ,0,
12059,61953,NB MAPLE ST FS ELGIN AVE,MAPLE ST @ ELGIN AVE,49.264587,-122.781442,ZN 99, ,0,
3483,53445,WB KINGSWAY AVE FS JANE ST,KINGSWAY AVE @ JANE ST,49.265581,-122.787861,ZN 99, ,0,
12021,61749,WB DEWDNEY TRUNK RD FS WESTWOOD ST,DEWDNEY TRUNK RD @ WESTWOOD ST,49.268102,-122.791167,ZN 99, ,0,
3395,53358,WB DEWDNEY TRUNK RD FS IRVINE ST,DEWDNEY TRUNK RD @ IRVINE ST,49.268123,-122.795196,ZN 99, ,0,
3068,53036,WB DEWDNEY TRUNK RD FS LOUGHEED HWY,DEWDNEY TRUNK RD @ LOUGHEED HWY,49.269819,-122.800011,ZN 99, ,0,
3069,53037,WB DEWDNEY TRUNK RD FS NORMAN AVE,DEWDNEY TRUNK RD @ NORMAN AVE,49.271255,-122.801808,ZN 99, ,0,
3847,53808,EB VICTORIA DR AT 900 BLOCK,VICTORIA DR @ 900 BLOCK,49.285695,-122.740475,ZN 99, ,0,
3064,53032,NB SHAUGHNESSY ST NS LIONS WAY,SHAUGHNESSY ST @ LIONS WAY,49.265899,-122.777781,ZN 99, ,0,
9389,58776,NB SHAUGHNESSY ST NS LODGE DR,SHAUGHNESSY ST @ LODGE DR,49.285917,-122.768900,ZN 99, ,0,
9390,58702,NB SHAUGHNESSY ST FS KEITH DR,SHAUGHNESSY ST @ KEITH DR,49.289882,-122.767037,ZN 99, ,0,
9391,58701,NB SHAUGHNESSY ST FS FLYNN CRES,SHAUGHNESSY ST @ FLYNN CRES,49.291420,-122.768961,ZN 99, ,0,
10401,59819,NB SHAUGHNESSY ST NS SHAUGHNESSY PL,SHAUGHNESSY ST @ SHAUGHNESSY PL,49.294363,-122.770891,ZN 99, ,0,
11949,59279,EB DAVID AVE FS SHAUGHNESSY ST,DAVID AVE @ SHAUGHNESSY ST,49.294599,-122.770477,ZN 99, ,0,
9365,58785,EB DAVID AVE NS OXFORD ST,DAVID AVE @ OXFORD ST,49.292971,-122.763659,ZN 99, ,0,
9382,58703,SB OXFORD ST NS FORESTGATE PL,OXFORD ST @ FORESTGATE PL,49.291225,-122.763205,ZN 99, ,0,
9383,58678,EB MASON AVE FS OXFORD ST,MASON AVE @ OXFORD ST,49.289214,-122.762596,ZN 99, ,0,
9384,58798,SB WELLINGTON ST NS CANTERBURY LANE,WELLINGTON ST @ CANTERBURY LANE,49.286862,-122.761655,ZN 99, ,0,
10195,59043,EB GREENMOUNT AVE FS WELLINGTON ST,GREENMOUNT AVE @ WELLINGTON ST,49.284276,-122.761184,ZN 99, ,0,
3843,53804,NB COAST MERIDIAN RD FS GREENMOUNT AVE,COAST MERIDIAN RD @ GREENMOUNT AVE,49.284670,-122.755902,ZN 99, ,0,
3844,53805,EB VICTORIA DR FS TORONTO ST,VICTORIA DR @ TORONTO ST,49.285674,-122.752705,ZN 99, ,0,
3845,53806,EB VICTORIA DR FS APEL DR,VICTORIA DR @ APEL DR,49.285676,-122.749593,ZN 99, ,0,
3846,53807,EB VICTORIA DR AT BURKE MOUNTAIN ST,VICTORIA DR @ BURKE MOUNTAIN ST,49.285687,-122.744835,ZN 99, ,0,
12022,61911,MOODY CENTRE STN BAY 3,MOODY CENTRE STN @ BAY 3,49.277763,-122.845835,ZN 99, ,0,
3964,53923,EB PANORAMA DR FS LANSDOWNE DR,PANORAMA DR @ LANSDOWNE DR,49.297415,-122.813092,ZN 99, ,0,
3318,53283,NB HERITAGE MOUNTAIN BLVD FS UNGLESS WAY,HERITAGE MTN BLVD @ UNGLESS WAY,49.284992,-122.828651,ZN 99, ,0,
3319,53284,NB HERITAGE MTN BLVD FS RAVINE DR,HERITAGE MTN BLVD @ RAVINE DR,49.289750,-122.833217,ZN 99, ,0,
3320,53285,NB HERITAGE MOUNTAIN BLVD AT PARKGLEN PL,HERITAGE MTN BLVD @ PARKGLEN PL,49.291902,-122.834679,ZN 99, ,0,
9643,58890,NB HERITAGE MTN BLVD AT 1200 BLOCK,HERITAGE MTN BLVD @ 1200 BLOCK,49.295685,-122.842581,ZN 99, ,0,
9344,58858,NB FOREST PARK WAY FS ASPENWOOD DR SOUTH,FOREST PARK WAY @ ASPENWOOD DRIVE SOUTH,49.298354,-122.833187,ZN 99, ,0,
9220,58861,NB FOREST PARK WAY FS ASPENWOOD DR N,FOREST PARK WAY @ ASPENWOOD DR,49.300612,-122.832941,ZN 99, ,0,
9227,58885,NB FOREST PARK WAY FS FIRVIEW PL,FOREST PARK WAY @ FIRVIEW PL,49.302840,-122.833432,ZN 99, ,0,
9229,58847,SB PANORAMA DR FS FOREST PARK WAY,PANORAMA DR @ FOREST PARK WAY,49.304090,-122.830414,ZN 99, ,0,
9445,58864,SB PANORAMA DR NS PANORAMA PL,PANORAMA DR @ PANORAMA PL,49.302406,-122.829727,ZN 99, ,0,
9328,58853,EB PANORAMA DR NS STONERIDGE LANE,PANORAMA DR @ STONERIDGE LANE,49.301022,-122.822467,ZN 99, ,0,
9329,58855,EB PANORAMA DR FS EAGLE MOUNTAIN DR,PANORAMA DR @ EAGLE MOUNTAIN DR,49.299630,-122.819822,ZN 99, ,0,
9330,58857,EB PANORAMA DR FS GREENSTONE COURT,PANORAMA DR @ GREENSTONE COURT,49.298536,-122.818478,ZN 99, ,0,
3943,53902,EB PANORAMA DR FS NOONS CREEK DR,PANORAMA DR @ NOONS CREEK DR,49.297441,-122.815409,ZN 99, ,0,
9337,58889,EB DAVID AVE AT 1300 BLOCK,DAVID AVE @ 1300 BLOCK,49.297032,-122.839787,ZN 99, ,0,
3965,53924,EB PANORAMA DR FS PARKWAY BLVD,PANORAMA DR @ PARKWAY BLVD,49.297486,-122.808978,ZN 99, ,0,
9066,58587,EB PANORAMA DR AT 2900 BLOCK,PANORAMA DR @ 2900 BLOCK,49.298739,-122.803963,ZN 99, ,0,
12264,59506,SB PINETREE WAY FS ROBSON DR,PINETREE WAY @ ROBSON DR,49.298482,-122.787916,ZN 99, ,0,
3321,53286,NB HERITAGE MOUNTAIN BLVD NS TURNER CREEK DR,HERITAGE MTN BLVD @ TURNER CREEK DR,49.292796,-122.837532,ZN 99, ,0,
3533,53495,COQUITLAM CENTRAL STN BAY 8,COQUITLAM CENTRAL STN @ BAY 8,49.275144,-122.798930,ZN 99, ,0,
9179,58869,WB PANORAMA DR FS LANSDOWNE DR,PANORAMA DR @ LANSDOWNE DR,49.297490,-122.814600,ZN 99, ,0,
9310,58836,WB PANORAMA DR FS JOHNSON ST,PANORAMA DR @ JOHNSON ST,49.299379,-122.802263,ZN 99, ,0,
9322,58837,WB PANORAMA DR AT 2900 BLOCK,PANORAMA DR @ 2900 BLOCK,49.298123,-122.806359,ZN 99, ,0,
9311,58839,WB PANORAMA DR FS PARKWAY BLVD,PANORAMA DR @ PARKWAY BLVD,49.297586,-122.809782,ZN 99, ,0,
9325,58867,WB PANORAMA DR FS NOONS CREEK DR,PANORAMA DR @ NOONS CREEK DR,49.297670,-122.816199,ZN 99, ,0,
9326,58856,WB PANORAMA DR FS GREENSTONE COURT,PANORAMA DR @ GREENSIDE COURT,49.298999,-122.818864,ZN 99, ,0,
9327,58866,WB PANORAMA DR FS EAGLE MOUNTAIN DR,PANORAMA DR @ EAGLE MOUNTAIN DR,49.300229,-122.820359,ZN 99, ,0,
9222,58854,WB PANORAMA DR FS STONERIDGE LANE,PANORAMA DR @ STONERIDGE LANE,49.301123,-122.822722,ZN 99, ,0,
9223,58863,NB PANORAMA DR FS PANORAMA PL,PANORAMA DR @ PANORAMA PL,49.302618,-122.829659,ZN 99, ,0,
9984,59297,NB PANORAMA DR NS FOREST PARK WAY,PANORAMA DR @ FOREST PARK WAY,49.303852,-122.830043,ZN 99, ,0,
9225,58849,SB FOREST PARK WAY FS FERNWAY DR,FOREST PARK WAY @ FERNWAY DR,49.303562,-122.832776,ZN 99, ,0,
9226,58884,SB FOREST PARK WAY FS FIRVIEW PL,FOREST PARK WAY @ FIRVIEW PL,49.302477,-122.833849,ZN 99, ,0,
9221,58860,SB FOREST PARK WAY FS LINDEN COURT,FOREST PARK WAY @ LINDEN COURT,49.300552,-122.833068,ZN 99, ,0,
9339,58755,WB FOREST PARK WAY FS ASPENWOOD DR,FOREST PARK WAY @ ASPENWOOD DR,49.298277,-122.833880,ZN 99, ,0,
9336,58888,WB DAVID AVE AT 1300 BLOCK,DAVID AVE @ 1300 BLOCK,49.297443,-122.840414,ZN 99, ,0,
9650,58891,SB HERITAGE MTN BLVD AT 1200 BLOCK,HERITAGE MTN BLVD @ FOXWOOD DR,49.295778,-122.842921,ZN 99, ,0,
9548,59100,SB HERITAGE MTN BLVD FS PARKSIDE DR,HERITAGE MTN BLVD @ PARKSIDE DR,49.292711,-122.838033,ZN 99, ,0,
10172,59101,SB HERITAGE MTN BLVD FS RAVINE DR,HERITAGE MTN BLVD @ RAVINE DR,49.289154,-122.833525,ZN 99, ,0,
3215,53181,WB SAINT JOHNS ST FS MORAY ST,SAINT JOHNS ST @ MORAY ST,49.276773,-122.835883,ZN 99, ,0,
3216,53182,WB SAINT JOHNS ST FS BULLER ST,SAINT JOHNS ST @ BULLER ST,49.276738,-122.840881,ZN 99, ,0,
3214,53180,WB SAINT JOHNS ST FS CLEARVIEW DR,SAINT JOHNS ST @ CLEARVIEW DR,49.276633,-122.831541,ZN 99, ,0,
10135,59496,NB PINETREE WAY FS SILVER SPRINGS BLVD,PINETREE WAY @ SILVER SPRINGS BLVD,49.294735,-122.788720,ZN 99, ,0,
3769,53730,COQUITLAM CENTRAL STN BAY 12,COQUITLAM CENTRAL STN @ BAY 12,49.275845,-122.798426,ZN 99, ,0,
3782,53743,LAFARGE LAKE-DOUGLAS STN BAY 3,LAFARGE LAKE-DOUGLAS STN @ BAY 3,49.285091,-122.793797,ZN 99, ,0,
3783,53744,WB GUILDFORD WAY NS PACIFIC ST,GUILDFORD WAY @ PACIFIC ST,49.285315,-122.797263,ZN 99, ,0,
3784,53745,WB GUILDFORD WAY FS JOHNSON ST,GUILDFORD WAY @ JOHNSON ST,49.285240,-122.802332,ZN 99, ,0,
3785,53746,WB GUILDFORD WAY AT 2800 BLOCK,GUILDFORD WAY @ 2800 BLOCK,49.285020,-122.806025,ZN 99, ,0,
3314,53279,WB GUILDFORD WAY FS LANSDOWNE DR,GUILDFORD WAY @ LANSDOWNE DR,49.284287,-122.810431,ZN 99, ,0,
3786,53747,WB GUILDFORD WAY FS EAGLERIDGE DR,GUILDFORD WAY @ EAGLERIDGE DR,49.283488,-122.813271,ZN 99, ,0,
3315,53280,WB GUILDFORD WAY FS FALCON DR,GUILDFORD WAY @ FALCON DR,49.284769,-122.818899,ZN 99, ,0,
3316,53281,WB GUILDFORD WAY FS EAGLE RIDGE HOSPITAL,GUILDFORD WAY @ EAGLE RIDGE HOSPITAL,49.284341,-122.822202,ZN 99, ,0,
3792,53753,NB BARNET HWY FS VIEW ST,BARNET HWY @ VIEW ST,49.280181,-122.866483,ZN 99, ,0,
3793,53754,NB BARNET HWY FS UNION ST,BARNET HWY @ UNION ST,49.287092,-122.867643,ZN 99, ,0,
3794,53755,WB BARNET HWY FS REED POINT WAY,BARNET HWY @ REED POINT WAY,49.291174,-122.878787,ZN 99, ,0,
3795,53756,WB BARNET RD AT 9900 BLOCK,BARNET RD @ 9900 BLOCK,49.288747,-122.896523,ZN 99, ,0,
3796,53757,WB BARNET RD AT BARNET MARINE PARK,BARNET RD @ BARNET MARINE PARK,49.289329,-122.926468,ZN 99, ,0,
3797,53758,WB BARNET RD FS TEXACO DR,BARNET RD @ TEXACO DR,49.290367,-122.932258,ZN 99, ,0,
3798,53759,WB BARNET RD AT 7500 BLOCK,BARNET RD @ 7500 BLOCK,49.289352,-122.942110,ZN 99, ,0,
3799,53760,SB INLET DR NS BAYVIEW DR,INLET DR @ BAYVIEW DR,49.287022,-122.953126,ZN 99, ,0,
3800,53761,SB INLET DR FS RIDGE DR,INLET DR @ RIDGE DR,49.282880,-122.956499,ZN 99, ,0,
1479,51467,WB HASTINGS ST FS GILMORE AVE,HASTINGS ST @ GILMORE AVE,49.281146,-123.014877,ZN 99, ,0,
9380,58680,SB OXFORD ST NS WESTMINSTER AVE,OXFORD ST @ WESTMINSTER AVE,49.265741,-122.767266,ZN 99, ,0,
9240,58806,WB OXFORD CONNECTOR FS OXFORD ST,OXFORD CONNECTOR @ OXFORD ST,49.263833,-122.768301,ZN 99, ,0,
10864,60204,WB OXFORD CONNECTOR AT 1900 BLOCK,OXFORD CONNECTOR @ 1900 BLOCK,49.265203,-122.771539,ZN 99, ,0,
9378,58804,WB OXFORD CONNECTOR AT 2000 BLOCK,OXFORD CONNECTOR @ 2000 BLOCK,49.265557,-122.773710,ZN 99, ,0,
9379,58805,WB MALL ACCESS RD NS SHAUGHNESSY ST,MALL ACCESS RD @ SHAUGHNESSY ST,49.265534,-122.776059,ZN 99, ,0,
3848,53809,EB VICTORIA DR FS ROCKLIN ST,VICTORIA DR @ ROCKLIN ST,49.285709,-122.737936,ZN 99, ,0,
3849,61246,SB CEDAR DR FS INVERNESS ST,CEDAR DR @ INVERNESS ST,49.282866,-122.738140,ZN 99, ,0,
3850,53811,SB CEDAR DR FS LINCOLN AVE,CEDAR DR @ LINCOLN AVE,49.278102,-122.738731,ZN 99, ,0,
3851,53812,SB CEDAR DR FS PINEMONT AVE,CEDAR DR @ PINEMONT AVE,49.273631,-122.739269,ZN 99, ,0,
3900,53860,WB COQUITLAM AVE FS COAST MERIDIAN RD,COQUITLAM AVE @ COAST MERIDIAN RD,49.267482,-122.756676,ZN 99, ,0,
3901,53861,WB COQUITLAM AVE FS WELLINGTON ST,COQUITLAM AVE @ WELLINGTON ST,49.267423,-122.762047,ZN 99, ,0,
3902,53862,SB OXFORD ST FS COQUITLAM AVE,OXFORD ST @ COQUITLAM AVE,49.267061,-122.767276,ZN 99, ,0,
2338,52316,EB COLUMBIA ST FS 6 ST,COLUMBIA ST @ 6 ST,49.203434,-122.907237,ZN 99, ,0,
2451,52427,EB AGNES ST FS 4 ST,AGNES ST @ 4 ST,49.206323,-122.907020,ZN 99, ,0,
2452,52428,EB AGNES ST NS MERRIVALE ST,AGNES ST @ MERRIVALE ST,49.207214,-122.905371,ZN 99, ,0,
8978,52431,NB 4 ST FS COLUMBIA ST,4 ST @ COLUMBIA ST,49.204930,-122.905596,ZN 99, ,0,
9186,58412,NB 1 ST FS AGNES ST,1 ST @ AGNES ST,49.209455,-122.902039,ZN 99, ,0,
9184,58983,WB QUEENS PARK CARE CENTRE FS BLACKBERRY DR,QUEENS PARK CARE CENTRE @ BLACKBERRY DR,49.216676,-122.901632,ZN 99, ,0,
11539,61251,NB ROSS DR AT 200 BLOCK,ROSS DR @ 200 BLOCK,49.214216,-122.899826,ZN 99, ,0,
11846,61676,EB E ROYAL AVE FS MCBRIDE BLVD,E ROYAL AVE @ MCBRIDE BLVD,49.212701,-122.898435,ZN 99, ,0,
8988,58411,EB AGNES ST FS ELLIOT ST,AGNES ST @ ELLIOT ST,49.208290,-122.903368,ZN 99, ,0,
11712,61656,NEW WESTMINSTER STN BAY 9,NEW WESTMINSTER STATION @ BAY 9,49.201472,-122.911997,ZN 99, ,0,
7432,57359,WB 2 AVE NS 52A ST,2 AVE @ 52A ST,49.006413,-123.077679,ZN 99, ,0,
7433,57360,NB 52A ST NS 3 AVE,52A ST @ 3 AVE,49.008189,-123.078335,ZN 99, ,0,
7434,57361,WB MILSOM WYND FS 52 ST,MILSOM WYND @ 52 ST,49.010131,-123.080205,ZN 99, ,0,
7435,57362,WB MILSOM WYND FS GALWAY DR,MILSOM WYND @ GALWAY DR,49.010375,-123.083045,ZN 99, ,0,
7436,57363,NB MILSOM WYND FS 5 AVE,MILSOM WYND @ 5 AVE,49.012329,-123.085329,ZN 99, ,0,
7437,57364,EB 6 AVE FS MILSOM WYND,6 AVE @ MILSOM WYND,49.013513,-123.084766,ZN 99, ,0,
7441,57368,EB 8A AVE FS 52A ST,8A AVE @ 52A ST,49.018012,-123.078314,ZN 99, ,0,
7442,57369,NB 53A ST FS 9 AVE,53A ST @ 9 AVE,49.020258,-123.075243,ZN 99, ,0,
7443,57370,NB 53A ST NS 10A AVE,53A ST @ 10A AVE,49.022990,-123.075292,ZN 99, ,0,
7444,57371,EB 12 AVE FS 53A ST,12 AVE @ 53A ST,49.024623,-123.074593,ZN 99, ,0,
7445,57372,EB 12 AVE AT 5500 BLOCK,12 AVE @ 5500 BLOCK,49.024603,-123.070259,ZN 99, ,0,
7446,57373,NB 56 ST FS 12 AVE,56 ST @ 12 AVE,49.025430,-123.068549,ZN 99, ,0,
7447,57374,NB 56 ST FS VIEW CRES SOUTH,56 ST @ VIEW CRES SOUTH,49.027839,-123.068546,ZN 99, ,0,
7448,57375,NB 56 ST FS VIEW CRES NORTH,56 ST @ VIEW CRES NORTH,49.030006,-123.068560,ZN 99, ,0,
7449,57376,NB 56 ST NS 16 AVE,56 ST @ 16 AVE,49.031830,-123.068542,ZN 99, ,0,
7450,57377,SOUTH DELTA EXCHANGE BAY 1,SOUTH DELTA PARK AND RIDE @ BAY 1,49.035726,-123.068475,ZN 99, ,0,
7453,57380,NB 53 ST FS 28 AVE,53 ST @ 28 AVE,49.054711,-123.076869,ZN 99, ,0,
7455,57382,NB ARTHUR DR FS 34B AVE,ARTHUR DR @ 34B AVE,49.065658,-123.077271,ZN 99, ,0,
7456,57383,NB ARTHUR DR FS 36 AVE,ARTHUR DR @ 36 AVE,49.068851,-123.077622,ZN 99, ,0,
7457,57384,NB ARTHUR DR AT 3700 BLOCK,ARTHUR DR @ 3700 BLOCK,49.070622,-123.077706,ZN 99, ,0,
7458,57385,NB ARTHUR DR AT 3900 BLOCK,ARTHUR DR @ 3900 BLOCK,49.075085,-123.079012,ZN 99, ,0,
7459,57386,NB ARTHUR DR FS WHITWORTH CRES,ARTHUR DR @ WHITWORTH CRES,49.080206,-123.078546,ZN 99, ,0,
7460,57387,NB ARTHUR DR AT 4400 BLOCK,ARTHUR DR @ 4400 BLOCK,49.083779,-123.078253,ZN 99, ,0,
7461,57388,NB ARTHUR DR FS 45 AVE,ARTHUR DR @ 45 AVE,49.085535,-123.079119,ZN 99, ,0,
7462,57389,NB ARTHUR DR FS 47 AVE,ARTHUR DR @ 47 AVE,49.088904,-123.080537,ZN 99, ,0,
7464,57391,EB LADNER TRUNK RD FS CENTRAL AVE,LADNER TRUNK RD @ CENTRAL AVE,49.090148,-123.079790,ZN 99, ,0,
7465,57392,EB LADNER TRUNK RD FS 53 ST,LADNER TRUNK RD @ 53 ST,49.090138,-123.075506,ZN 99, ,0,
7466,57393,EB LADNER TRUNK RD FS LINDEN DR,LADNER TRUNK RD @ LINDEN DR,49.090137,-123.071208,ZN 99, ,0,
7467,57394,EB LADNER TRUNK RD FS 55B ST,LADNER TRUNK RD @ 55B ST,49.090130,-123.068177,ZN 99, ,0,
5243,55191,SB HARVEST DR FS LADNER TRUNK RD,HARVEST DR @ LADNER TRUNK RD,49.089315,-123.063143,ZN 99, ,0,
5216,55164,LADNER EXCHANGE BAY 6,LADNER EXCHANGE @ BAY 6,49.087611,-123.062502,ZN 99, ,0,
5217,55165,NB HARVEST DR NS LADNER TRUNK RD,HARVEST DR @ LADNER TRUNK RD,49.089720,-123.062852,ZN 99, ,0,
6738,56674,NB HWY 17A FS HWY 10,HWY 17A @ HWY 10,49.091256,-123.056797,ZN 99, ,0,
9549,59122,NB ARTHUR DR AT 3800 BLOCK,ARTHUR DR @ 3800 BLOCK,49.072972,-123.078468,ZN 99, ,0,
10085,58648,NB 52 ST FS 7A AVE,52 ST @ 7A AVE,49.016482,-123.079571,ZN 99, ,0,
7438,57365,NB 52 ST FS 6 AVE,52 ST @ 6 AVE,49.013964,-123.079629,ZN 99, ,0,
10383,57381,NB 53 ST AT 3000 BLOCK,53 ST @ 3000 BLOCK,49.057376,-123.076904,ZN 99, ,0,
7463,57390,NB ARTHUR DR NS LADNER TRUNK RD,ARTHUR DR @ LADNER TRUNK RD,49.089774,-123.081641,ZN 99, ,0,
6729,56666,SB HWY 17 FS 56 ST,HWY 17 @ 56 ST,49.042420,-123.069938,ZN 99, ,0,
12205,59478,NB 52 ST FS HWY 17,52 ST @ HWY 17,49.038258,-123.079636,ZN 99, ,0,
12206,59485,NB 52 ST FS CANOE PASS WAY,52 ST @ CANOE PASS WAY,49.041837,-123.079675,ZN 99, ,0,
11363,61419,NB RENAISSANCE SQUARE NS QUAYSIDE DR,RENAISSANCE SQUARE @ QUAYSIDE DR,49.199987,-122.924573,ZN 99, ,0,
11719,61655,NEW WESTMINSTER STN BAY 8,NEW WESTMINSTER STATION @ BAY 8,49.201570,-122.913429,ZN 99, ,0,
12086,61938,WB QUAYSIDE DR NS RELIANCE COURT,QUAYSIDE DR @ RELIANCE COURT,49.199058,-122.917675,ZN 99, ,0,
9181,59008,WB QUAYSIDE DR AT 1200 BLOCK,QUAYSIDE DR @ 1200 BLOCK,49.199243,-122.920646,ZN 99, ,0,
4143,54100,PHIBBS EXCHANGE BAY 2,PHIBBS EXCHANGE @ BAY 2,49.305323,-123.028735,ZN 99, ,0,
4071,54030,EB MT SEYMOUR PARKWAY NS RIVERSIDE DR,MT SEYMOUR PARKWAY @ RIVERSIDE DR,49.310835,-123.015427,ZN 99, ,0,
4072,54031,EB MT SEYMOUR PARKWAY FS BROWNING PL,MT SEYMOUR PARKWAY @ BROWNING PL,49.312136,-123.006910,ZN 99, ,0,
4073,54032,EB MT SEYMOUR PARKWAY FS BERKLEY RD,MT SEYMOUR PARKWAY @ BERKLEY RD,49.314141,-123.003532,ZN 99, ,0,
4144,54101,NB EMERSON WAY FS MT SEYMOUR PARKWAY,EMERSON WAY @ MT SEYMOUR PARKWAY,49.316329,-122.998028,ZN 99, ,0,
4145,54102,WB CARNATION ST FS EMERSON WAY,CARNATION ST @ EMERSON WAY,49.318119,-122.998605,ZN 99, ,0,
4146,54103,NB BERKLEY RD FS CARNATION ST,BERKLEY RD @ CARNATION ST,49.318413,-123.004867,ZN 99, ,0,
4147,54104,NB BERKLEY RD FS SHELLEY RD,BERKLEY RD @ SHELLEY RD,49.321181,-123.004853,ZN 99, ,0,
4148,54105,NB BERKLEY RD FS BOSWELL AVE,BERKLEY RD @ BOSWELL AVE,49.322945,-123.004794,ZN 99, ,0,
4149,54106,NB BERKLEY RD FS LAYTON DR,BERKLEY RD @ LAYTON DR,49.324850,-123.004796,ZN 99, ,0,
4150,54107,NB BERKLEY RD NS SECHELT DR,BERKLEY RD @ SECHELT DR,49.325861,-123.004734,ZN 99, ,0,
4151,54108,NB BERKLEY AVE FS DERBYSHIRE PL,BERKLEY AVE @ DERBYSHIRE PL,49.328741,-123.001716,ZN 99, ,0,
4152,54109,EB BERKLEY AVE NS HYANNIS DR,BERKLEY AVE @ HYANNIS DR,49.329773,-122.999078,ZN 99, ,0,
4153,54110,SB HYANNIS DR FS BERKELEY AVE,HYANNIS DR @ BERKELEY AVE,49.328882,-122.997308,ZN 99, ,0,
4074,54033,EB MT SEYMOUR PARKWAY FS LYTTON ST,MT SEYMOUR PARKWAY @ LYTTON ST,49.315396,-123.000619,ZN 99, ,0,
4070,54029,EB MT SEYMOUR PARKWAY FS SEYMOUR BLVD,MT SEYMOUR PARKWAY @ SEYMOUR BLVD,49.311140,-123.020453,ZN 99, ,0,
10631,50922,WB W BROADWAY FS YUKON ST,W BROADWAY @ YUKON ST,49.263296,-123.113277,ZN 99, ,0,
11451,52539,WB LOUGHEED HWY FS BAINBRIDGE AVE,LOUGHEED HWY @ BAINBRIDGE AVE,49.258861,-122.956938,ZN 99, ,0,
11930,51007,NB SEYMOUR ST NS ROBSON ST,SEYMOUR ST @ ROBSON ST,49.280537,-123.118869,ZN 99, ,0,
11874,61802,BRENTWOOD STN BAY 2,BRENTWOOD STN @ BAY 2,49.266536,-123.001909,ZN 99, ,0,
10619,58613,WB E BROADWAY FS FRASER ST,E BROADWAY @ FRASER ST,49.262593,-123.090090,ZN 99, ,0,
11088,58501,WB W BROADWAY FS CAMBIE ST,W BROADWAY @ CAMBIE ST,49.263338,-123.115714,ZN 99, ,0,
8687,58434,LOUGHEED STN BAY 10,LOUGHEED STN @ BAY 10,49.247856,-122.895467,ZN 99, ,0,
12073,58182,WB E BROADWAY FS COMMERCIAL DR,E BROADWAY @ COMMERCIAL DR,49.262448,-123.070292,ZN 99, ,0,
888,50881,WB E BROADWAY FS MAIN ST-,E BROADWAY @ MAIN ST,49.263020,-123.101629,ZN 99, ,0,
217,50216,NB GRANVILLE ST FS W BROADWAY,GRANVILLE ST @ W BROADWAY,49.264166,-123.138406,ZN 99, ,0,
2107,52089,WB LOUGHEED HWY FS AUSTIN RD,LOUGHEED HWY @ AUSTIN RD,49.249412,-122.898833,ZN 99, ,0,
8714,58347,WB LOUGHEED HWY FS BELL AVE,LOUGHEED HWY @ BELL AVE,49.251474,-122.905112,ZN 99, ,0,
2869,52840,WB LOUGHEED HWY FS GAGLARDI WAY,LOUGHEED HWY @ GAGLARDI WAY,49.252623,-122.913354,ZN 99, ,0,
10034,58349,WB LOUGHEED HWY NS PRODUCTION WAY BAY 4,LOUGHEED HWY @ PRODUCTION WAY,49.253225,-122.917557,ZN 99, ,0,
10028,53308,WB LOUGHEED HWY FS LAKE CITY WAY,LOUGHEED HWY @ LAKE CITY WAY,49.254430,-122.938606,ZN 99, ,0,
10021,52835,WB LOUGHEED HWY NS SPERLING AVE,LOUGHEED HWY @ SPERLING AVE,49.259409,-122.962965,ZN 99, ,0,
10017,53309,WB LOUGHEED HWY FS HOLDOM AVE,LOUGHEED HWY @ HOLDOM AVE,49.265095,-122.982085,ZN 99, ,0,
10013,59701,WB LOUGHEED HWY FS MADISON AVE,LOUGHEED HWY @ MADISON AVE,49.266542,-123.009457,ZN 99, ,0,
8743,58386,WB LOUGHEED HWY FS GILMORE AVE,LOUGHEED HWY @ GILMORE AVE,49.266207,-123.014956,ZN 99, ,0,
909,50902,WB LOUGHEED HWY FS SKEENA ST,LOUGHEED HWY @ SKEENA ST,49.263328,-123.028889,ZN 99, ,0,
910,50903,WB E BROADWAY FS CASSIAR ST,E BROADWAY @ CASSIAR ST,49.262053,-123.031548,ZN 99, ,0,
911,50904,WB E BROADWAY FS RUPERT ST,E BROADWAY @ RUPERT ST,49.262009,-123.034312,ZN 99, ,0,
912,50905,WB E BROADWAY FS WINDERMERE ST,E BROADWAY @ WINDERMERE ST,49.261989,-123.037125,ZN 99, ,0,
8277,58044,WB E BROADWAY FS LILLOOET ST,E BROADWAY @ LILLOOET ST,49.262004,-123.039504,ZN 99, ,0,
916,50908,WB E BROADWAY FS SLOCAN ST,E BROADWAY @ SLOCAN ST,49.262111,-123.050045,ZN 99, ,0,
917,50909,WB E BROADWAY NS PENTICTON ST,E BROADWAY @ PENTICTON ST,49.262111,-123.051889,ZN 99, ,0,
918,50910,WB E BROADWAY FS KAMLOOPS ST,E BROADWAY @ KAMLOOPS ST,49.262127,-123.055187,ZN 99, ,0,
689,50682,WB E BROADWAY FS NANAIMO ST,E BROADWAY @ NANAIMO ST,49.262340,-123.057336,ZN 99, ,0,
919,50911,WB E BROADWAY FS LAKEWOOD DR,E BROADWAY @ LAKEWOOD DR,49.262356,-123.062394,ZN 99, ,0,
920,50912,WB E BROADWAY FS SEMLIN DR,E BROADWAY @ SEMLIN DR,49.262384,-123.064374,ZN 99, ,0,
922,50914,WB E BROADWAY FS WOODLAND DR,E BROADWAY @ WOODLAND DR,49.262447,-123.074067,ZN 99, ,0,
923,50915,WB E BROADWAY FS MCLEAN DR,E BROADWAY @ MCLEAN DR,49.262487,-123.076070,ZN 99, ,0,
924,50916,WB E BROADWAY FS CLARK DR,E BROADWAY @ CLARK DR,49.262499,-123.078554,ZN 99, ,0,
925,50917,WB E BROADWAY NS GLEN DR,E BROADWAY @ GLEN DR,49.262497,-123.080761,ZN 99, ,0,
926,50918,WB E BROADWAY FS WINDSOR ST,E BROADWAY @ WINDSOR ST,49.262532,-123.083724,ZN 99, ,0,
927,50919,WB E BROADWAY FS PRINCE ALBERT ST,E BROADWAY @ PRINCE ALBERT ST,49.262579,-123.087643,ZN 99, ,0,
855,50848,WB E BROADWAY FS SAINT GEORGE ST,E BROADWAY @ SAINT GEORGE ST,49.262594,-123.093958,ZN 99, ,0,
856,50849,WB E BROADWAY FS PRINCE EDWARD ST,E BROADWAY @ PRINCE EDWARD ST,49.262835,-123.096513,ZN 99, ,0,
857,50850,WB E BROADWAY NS SCOTIA ST,E BROADWAY @ SCOTIA ST,49.262926,-123.098697,ZN 99, ,0,
928,50920,WB W BROADWAY FS ONTARIO ST,W BROADWAY @ ONTARIO ST,49.263101,-123.105291,ZN 99, ,0,
929,50921,WB W BROADWAY FS COLUMBIA ST,W BROADWAY @ COLUMBIA ST,49.263212,-123.109868,ZN 99, ,0,
932,50924,WB W BROADWAY FS ASH ST,W BROADWAY @ ASH ST,49.263360,-123.118098,ZN 99, ,0,
933,50925,WB W BROADWAY FS HEATHER ST,W BROADWAY @ HEATHER ST,49.263401,-123.120227,ZN 99, ,0,
467,50463,WB W BROADWAY FS OAK ST,W BROADWAY @ OAK ST,49.263531,-123.127301,ZN 99, ,0,
468,50464,WB W BROADWAY FS SPRUCE ST,W BROADWAY @ SPRUCE ST,49.263540,-123.129369,ZN 99, ,0,
469,50465,WB W BROADWAY FS ALDER ST,W BROADWAY @ ALDER ST,49.263576,-123.131742,ZN 99, ,0,
470,50466,WB W BROADWAY FS HEMLOCK ST,W BROADWAY @ HEMLOCK ST,49.263674,-123.136501,ZN 99, ,0,
218,50217,NB GRANVILLE ST FS W 7 AVE,GRANVILLE ST @ W 7 AVE,49.265651,-123.138349,ZN 99, ,0,
4879,50218,NB GRANVILLE ST FS W 5 AVE,GRANVILLE ST @ W 5 AVE,49.267404,-123.138259,ZN 99, ,0,
934,50926,WB W BROADWAY FS WILLOW ST-,W BROADWAY @ WILLOW ST,49.263433,-123.122318,ZN 99, ,0,
2110,52092,WB LOUGHEED HWY AT BOUNDARY LOOP,LOUGHEED HWY @ BOUNDARY LOOP,49.265243,-123.025410,ZN 99, ,0,
915,50907,WB E BROADWAY FS RENFREW ST,E BROADWAY @ RENFREW ST,49.262097,-123.044962,ZN 99, ,0,
3217,53183,WB SAINT JOHNS ST FS WILLIAMS ST,SAINT JOHNS ST @ WILLIAMS ST,49.276768,-122.846702,ZN 99, ,0,
10399,59832,SB HOWE ST NS DUNSMUIR ST BAY 3,HOWE ST @ DUNSMUIR ST,49.284576,-123.117067,ZN 99, ,0,
9366,51006,NB SEYMOUR ST FS NELSON ST,SEYMOUR ST @ NELSON ST,49.278835,-123.121579,ZN 99, ,0,
1013,51004,NB SEYMOUR ST FS DAVIE ST,SEYMOUR ST @ DAVIE ST,49.276811,-123.124629,ZN 99, ,0,
10882,59526,EB LYNN VALLEY NS MOUNTAIN HWY,LYNN VALLEY RD @ MOUNTAIN HWY,49.336607,-123.038743,ZN 99, ,0,
4229,54183,EB LYNN VALLEY RD FS HAROLD RD,LYNN VALLEY RD @ HAROLD RD,49.338262,-123.035762,ZN 99, ,0,
4230,54184,EB LYNN VALLEY RD FS ALLAN RD,LYNN VALLEY RD @ ALLAN RD,49.340204,-123.032158,ZN 99, ,0,
4231,54185,EB LYNN VALLEY RD NS PETERS RD,LYNN VALLEY RD @ PETERS RD,49.341447,-123.029854,ZN 99, ,0,
4260,54214,EB PETERS RD NS HENDERSON AVE,PETERS RD @ HENDERSON AVE,49.341638,-123.026313,ZN 99, ,0,
4261,54215,EB PETERS RD NS DUVAL RD,PETERS RD @ DUVAL RD,49.341566,-123.022331,ZN 99, ,0,
4262,54216,SB DUVAL RD FS WESTOVER RD,DUVAL RD @ WESTOVER RD,49.338823,-123.022337,ZN 99, ,0,
4263,54217,SB DUVAL RD FS DRAYCOTT RD,DUVAL RD @ DRAYCOTT RD,49.336652,-123.022389,ZN 99, ,0,
1761,51747,PHIBBS EXCHANGE BAY 5,PHIBBS EXCHANGE @ BAY 5,49.305794,-123.029134,ZN 99, ,0,
4264,54218,WB ROSS RD AT 1700 BLOCK,ROSS RD @ 1700 BLOCK,49.336009,-123.025224,ZN 99, ,0,
4265,54219,SB HOSKINS RD FS ROSS RD,HOSKINS RD @ ROSS RD,49.335594,-123.027620,ZN 99, ,0,
4266,54220,SB HOSKINS RD FS KILMARNOCK CRES N,HOSKINS RD @ KILMARNOCK CRES N,49.333518,-123.026797,ZN 99, ,0,
4267,54221,SB HOSKINS RD FS TORQUAY AVE,HOSKINS RD @ TORQUAY AVE,49.330340,-123.026972,ZN 99, ,0,
4268,54222,SB HOSKINS RD FS KILMARNOCK CRES S,HOSKINS RD @ KILMARNOCK CRES S,49.329085,-123.027155,ZN 99, ,0,
4269,54223,SB HOSKINS RD AT GREENOCK PL,HOSKINS RD @ GREENOCK PL,49.326730,-123.028409,ZN 99, ,0,
4270,54224,SB ARBORLYNN DR FS HOSKINS RD,ARBORLYNN DR @ HOSKINS RD,49.323817,-123.030537,ZN 99, ,0,
4271,54225,SB ARBORLYNN DR AT AVONLYNN CRES,ARBORLYNN DR @ AVONLYNN CRES,49.321617,-123.032876,ZN 99, ,0,
4272,54226,SB ARBORLYNN DR FS APPIN RD,ARBORLYNN DR @ APPIN RD,49.318697,-123.034873,ZN 99, ,0,
10753,60884,SB ARBORLYNN DR NS MOUNTAIN HWY,ARBORLYNN DR @ MOUNTAIN HWY,49.317462,-123.035802,ZN 99, ,0,
4052,54011,EB E KEITH RD FS MOUNTAIN HWY,E KEITH RD @ MOUNTAIN HWY,49.313197,-123.037449,ZN 99, ,0,
1771,51757,SB MOUNTAIN HWY FS FERN ST,MOUNTAIN HWY @ FERN ST,49.311044,-123.032716,ZN 99, ,0,
1772,51758,SB MOUNTAIN HWY FS CHARLOTTE RD,MOUNTAIN HWY @ CHARLOTTE RD,49.309441,-123.032288,ZN 99, ,0,
1773,51759,SB MOUNTAIN HWY FS RUPERT ST,MOUNTAIN HWY @ RUPERT ST,49.307703,-123.032055,ZN 99, ,0,
1774,51760,EB OXFORD ST FS MOUNTAIN HWY,OXFORD ST @ MOUNTAIN HWY,49.305956,-123.031470,ZN 99, ,0,
7477,57404,SB ARTHUR DR FS 47 AVE,ARTHUR DR @ 47 AVE,49.088013,-123.079939,ZN 99, ,0,
7478,57405,SB ARTHUR DR FS 45 AVE,ARTHUR DR @ 45 AVE,49.084763,-123.078950,ZN 99, ,0,
7479,57406,SB ARTHUR DR FS 44 AVE,ARTHUR DR @ 44 AVE,49.082589,-123.078027,ZN 99, ,0,
7480,57407,SB ARTHUR DR FS WHITWORTH CRES,ARTHUR DR @ WHITWORTH CRES,49.079388,-123.079121,ZN 99, ,0,
7481,57408,SB ARTHUR DR AT 3700 BLOCK,ARTHUR DR @ 3700 BLOCK,49.070509,-123.077858,ZN 99, ,0,
7482,57409,SB ARTHUR DR FS 36 AVE,ARTHUR DR @ 36 AVE,49.068225,-123.077747,ZN 99, ,0,
7483,57410,SB ARTHUR DR FS 34B AVE,ARTHUR DR @ 34B AVE,49.065466,-123.077314,ZN 99, ,0,
7488,57415,SB 56 ST FS HWY 17,56 ST @ HWY 17,49.041672,-123.068871,ZN 99, ,0,
7489,58597,SOUTH DELTA EXCHANGE BAY 2,SOUTH DELTA PARK AND RIDE @ BAY 2,49.035894,-123.068869,ZN 99, ,0,
7490,57417,SB 56 ST FS 16 AVE,56 ST @ 16 AVE,49.031649,-123.068828,ZN 99, ,0,
7491,57418,SB 56 ST FS 14B AVE,56 ST @ 14B AVE,49.029052,-123.068832,ZN 99, ,0,
7492,57419,SB 56 ST FS VIEW CRES,56 ST @ VIEW CRES,49.027078,-123.068828,ZN 99, ,0,
7501,57428,WB 12 AVE FS 56 ST,12 AVE @ 56 ST,49.024781,-123.069207,ZN 99, ,0,
7502,57429,WB 12 AVE FS 55 ST,12 AVE @ 55 ST,49.024762,-123.072591,ZN 99, ,0,
7503,57430,SB 53A ST NS 11A AVE,53A ST @ 11A AVE,49.024206,-123.075569,ZN 99, ,0,
7504,57431,SB 53A ST FS 10 AVE,53A ST @ 10 AVE,49.021648,-123.075439,ZN 99, ,0,
7505,57432,SB 53A ST FS 9 AVE,53A ST @ 9 AVE,49.019415,-123.075589,ZN 99, ,0,
7506,57433,WB 8A AVE FS 53A ST,8A AVE @ 53A ST,49.018136,-123.077262,ZN 99, ,0,
7507,57434,SB 52 ST FS 8A AVE,52 ST @ 8A AVE,49.017711,-123.079717,ZN 99, ,0,
7508,57435,SB 52 ST NS DENNISON DR,52 ST @ DENNISON DR,49.015547,-123.079761,ZN 99, ,0,
7509,57436,SB 52 ST NS 6 AVE,52 ST @ 6 AVE,49.013773,-123.079818,ZN 99, ,0,
7510,57437,SB MILSOM WYND FS 6 AVE,MILSOM WYND @ 6 AVE,49.013222,-123.085540,ZN 99, ,0,
7511,57438,SB MILSOM WYND FS KERRY DR,MILSOM WYND @ KERRY DR,49.011176,-123.084752,ZN 99, ,0,
7512,57439,EB MILSOM WYND FS GALWAY DR,MILSOM WYND @ GALWAY DR,49.010081,-123.082053,ZN 99, ,0,
7513,57440,EB 4 AVE FS 52A ST,4 AVE @ 52A ST,49.010023,-123.077962,ZN 99, ,0,
7514,57441,SB 54 ST FS 4 AVE,54 ST @ 4 AVE,49.009444,-123.074199,ZN 99, ,0,
9046,57411,SB 53 ST AT 3000 BLOCK,53 ST @ 3000 BLOCK,49.057459,-123.077068,ZN 99, ,0,
10385,59258,SB ARTHUR DR AT 3800 BLOCK,ARTHUR DR @ 3800 BLOCK,49.073745,-123.078948,ZN 99, ,0,
11266,61327,BRIDGEPORT STN BAY 7,BRIDGEPORT STATION @ BAY 7,49.195150,-123.127086,ZN 99, ,0,
11458,61482,SB 54 ST NS 2 AVE,54 ST @ 2 AVE,49.006590,-123.074193,ZN 99, ,0,
12292,60097,WB 28 AVE FS 53 ST,28 AVE @ 53 ST,49.053912,-123.077682,ZN 99, ,0,
12207,59498,SB 52 ST FS CANOE PASS WAY,52 ST @ CANOE PASS WAY,49.040615,-123.079993,ZN 99, ,0,
5242,55190,WB LADNER TRUNK RD FS HWY 17A,LADNER TRUNK RD @ HWY 17A,49.090284,-123.058589,ZN 99, ,0,
7469,57396,LADNER EXCHANGE BAY 5,LADNER EXCHANGE @ BAY 5,49.087609,-123.062251,ZN 99, ,0,
7470,57397,WB LADNER TRUNK RD FS HARVEST DR,LADNER TRUNK RD @ HARVEST DR,49.090288,-123.063754,ZN 99, ,0,
7471,57398,WB LADNER TRUNK RD FS 57 ST,LADNER TRUNK RD @ 57 ST,49.090292,-123.065903,ZN 99, ,0,
7472,57399,WB LADNER TRUNK RD FS 55B ST,LADNER TRUNK RD @ 55B ST,49.090279,-123.069294,ZN 99, ,0,
7473,57400,WB LADNER TRUNK RD FS 54A ST,LADNER TRUNK RD @ 54A ST,49.090290,-123.073059,ZN 99, ,0,
7474,57401,WB LADNER TRUNK RD FS 53 ST,LADNER TRUNK RD @ 53 ST,49.090327,-123.076314,ZN 99, ,0,
7475,57402,WB LADNER TRUNK RD FS 52A ST,LADNER TRUNK RD @ 52A ST,49.090363,-123.079203,ZN 99, ,0,
7476,57403,SB ARTHUR DR AT 4700 BLOCK,ARTHUR DR @ 4700 BLOCK,49.089167,-123.081089,ZN 99, ,0,
4277,54230,NB ARBORLYNN DR NS HOSKINS RD,ARBORLYNN DR @ HOSKINS RD,49.324883,-123.029904,ZN 99, ,0,
4278,54231,NB HOSKINS RD NS GREENOCK PL,HOSKINS RD @ GREENOCK PL,49.326627,-123.028371,ZN 99, ,0,
4279,54232,NB HOSKINS RD FS KILMARNOCK CRES S,HOSKINS RD @ KILMARNOCK CRES S,49.329671,-123.026939,ZN 99, ,0,
4280,54233,NB HOSKINS RD FS TORQUAY AVE,HOSKINS RD @ TORQUAY AVE,49.330844,-123.026567,ZN 99, ,0,
4281,54234,NB HOSKINS RD FS WEMBLEY DR,HOSKINS RD @ WEMBLEY DR,49.333494,-123.026616,ZN 99, ,0,
4282,54235,EB ROSS RD FS HOSKINS RD,ROSS RD @ HOSKINS RD,49.335915,-123.027108,ZN 99, ,0,
4283,54236,EB ROSS RD NS WEMBLEY DR,ROSS RD @ WEMBLEY DR,49.335845,-123.023210,ZN 99, ,0,
4284,54237,NB DUVAL RD FS ROBINSON RD,DUVAL RD @ ROBINSON RD,49.337558,-123.022123,ZN 99, ,0,
4285,54238,NB DUVAL RD FS WESTOVER RD,DUVAL RD @ WESTOVER RD,49.339386,-123.022124,ZN 99, ,0,
4286,54239,WB PETERS RD FS DUVAL RD,PETERS RD @ DUVAL RD,49.341689,-123.022766,ZN 99, ,0,
4287,54240,WB PETERS RD FS HENDERSON AVE,PETERS RD @ HENDERSON AVE,49.341758,-123.026179,ZN 99, ,0,
4239,54193,WB LYNN VALLEY RD FS PETERS RD,LYNN VALLEY RD @ PETERS RD,49.341658,-123.029752,ZN 99, ,0,
4240,54194,WB LYNN VALLEY RD FS ALLAN RD,LYNN VALLEY RD @ ALLAN RD,49.339963,-123.032893,ZN 99, ,0,
4241,54195,WB LYNN VALLEY RD FS CHURCH ST,LYNN VALLEY RD @ CHURCH ST,49.338478,-123.035659,ZN 99, ,0,
10879,54003,SB MOUNTAIN HWY FS LYNN VALLEY RD,MOUNTAIN HWY @ LYNN VALLEY RD,49.336385,-123.038189,ZN 99, ,0,
4045,54004,SB MOUNTAIN HWY NS E 27 ST,MOUNTAIN HWY @ E 27TH ST,49.333879,-123.037968,ZN 99, ,0,
4015,53974,EB LYNN VALLEY RD FS E 27 ST,LYNN VALLEY RD @ E 27TH ST,49.334201,-123.043346,ZN 99, ,0,
4016,53975,EB LYNN VALLEY RD FS E 29 ST,LYNN VALLEY RD @ E 29TH ST,49.335451,-123.040994,ZN 99, ,0,
4003,53962,NB MOUNTAIN HWY FS FERN ST,MOUNTAIN HWY @ FERN ST,49.311750,-123.032506,ZN 99, ,0,
4119,54077,PHIBBS EXCHANGE BAY 7,PHIBBS EXCHANGE @ BAY 7,49.305786,-123.028859,ZN 99, ,0,
1762,51748,WB OXFORD ST NS MOUNTAIN HWY,OXFORD ST @ MOUNTAIN HWY,49.306043,-123.031375,ZN 99, ,0,
1763,51749,NB MOUNTAIN HWY FS CROWN ST,MOUNTAIN HWY @ CROWN ST,49.309147,-123.031975,ZN 99, ,0,
4004,53963,WB E KEITH RD NS MOUNTAIN HWY,E KEITH RD @ MOUNTAIN HWY,49.313331,-123.037246,ZN 99, ,0,
4274,54227,NB ARBORLYNN DR FS MOUNTAIN HWY,ARBORLYNN DR @ MOUNTAIN HWY,49.317420,-123.035639,ZN 99, ,0,
4275,54228,NB ARBORLYNN DR AT APPIN RD,ARBORLYNN DR @ APPIN RD,49.319200,-123.034569,ZN 99, ,0,
4276,54229,NB ARBORLYNN DR AT AVONLYNN CRES,ARBORLYNN DR @ AVONLYNN CRES,49.321842,-123.032395,ZN 99, ,0,
674,50667,NB ALMA ST FS W BROADWAY,ALMA ST @ W BROADWAY,49.264644,-123.185714,ZN 99, ,0,
11002,61143,SPANISH BANKS LOOP,BUS STOP @ SPANISH BANKS LOOP,49.276328,-123.215494,ZN 99, ,0,
354,50350,EB W 4 AVE AT 4100 BLOCK,W 4 AVE @ 4100 BLOCK,49.268679,-123.197617,ZN 99, ,0,
355,59298,EB W 4 AVE FS DIEPPE LANE,W 4 AVE @ DIEPPE LANE,49.268579,-123.193151,ZN 99, ,0,
356,50352,EB W 4 AVE FS WALLACE ST,W 4 AVE @ WALLACE ST,49.268520,-123.190183,ZN 99, ,0,
360,50356,SB ALMA ST FS W 6 AVE,ALMA ST @ W 6 AVE,49.266552,-123.185921,ZN 99, ,0,
359,50355,SB ALMA ST FS W 4 AVE,ALMA ST @ W 4 AVE,49.268214,-123.185850,ZN 99, ,0,
361,50357,SB ALMA ST NS W 10 AVE,ALMA ST @ W 10 AVE,49.263670,-123.186028,ZN 99, ,0,
11066,51906,EB NW MARINE DR FS TOLMIE ST,NW MARINE DR @ TOLMIE ST,49.274742,-123.211352,ZN 99, ,0,
11068,61133,SB NW MARINE DR FS BELMONT AVE,TRIMBLE ST @ BELMONT AVE,49.273327,-123.205803,ZN 99, ,0,
11054,51910,EB NW MARINE DR NS DISCOVERY ST,NW MARINE DR @ DISCOVERY ST,49.271953,-123.203426,ZN 99, ,0,
11056,51912,EB NW MARINE DR FS LOCARNO CRES,NW MARINE DR @ LOCARNO CRES,49.268799,-123.200827,ZN 99, ,0,
11071,61138,WB NW MARINE DR FS W 4 AVE,NW MARINE DR @ W 4 AVE,49.268938,-123.200648,ZN 99, ,0,
675,50668,NB ALMA ST FS W 7 AVE,ALMA ST @ W 7 AVE,49.266385,-123.185659,ZN 99, ,0,
597,50591,WB W 4 AVE FS WALLACE ST,W 4 AVE @ WALLACE ST,49.268794,-123.191056,ZN 99, ,0,
598,50592,WB W 4 AVE AT 4000 BLOCK,W 4 AVE @ 4000 BLOCK,49.268843,-123.194068,ZN 99, ,0,
599,50593,WB W 4 AVE AT 4100 BLOCK,W 4 AVE @ 4100 BLOCK,49.268917,-123.197836,ZN 99, ,0,
596,50590,WB W 4 AVE FS ALMA ST,W 4 AVE @ ALMA ST,49.268710,-123.186254,ZN 99, ,0,
11053,51934,WB NW MARINE DR FS DISCOVERY ST,NW MARINE DR @ DISCOVERY ST,49.271904,-123.203022,ZN 99, ,0,
11065,51935,NB NW MARINE DR FS BELMONT AVE,NW MARINE DR @ BELMONT AVE,49.274065,-123.205593,ZN 99, ,0,
11055,51937,WB NW MARINE DR FS SASAMAT ST,NW MARINE DR @ SASAMAT ST,49.274502,-123.209135,ZN 99, ,0,
11069,51938,WB NW MARINE DR FS TOLMIE ST,NW MARINE DR @ TOLMIE ST,49.275093,-123.212054,ZN 99, ,0,
7422,57349,WB 1A AVE FS 67 ST,1A AVE @ 67 ST,49.004799,-123.039206,ZN 99, ,0,
7423,57350,NB 66A ST AT 200 BLOCK,66A ST @ 200 BLOCK,49.006098,-123.040021,ZN 99, ,0,
7424,57351,NB 66A ST NS 3 AVE,66A ST @ 3 AVE,49.008147,-123.039987,ZN 99, ,0,
7425,57352,WB 3 AVE AT 6500 BLOCK,3 AVE @ 6500 BLOCK,49.008502,-123.043145,ZN 99, ,0,
7426,57353,NB BOUNDARY BAY RD FS 3 AVE,BOUNDARY BAY RD @ 3 AVE,49.009640,-123.046439,ZN 99, ,0,
7427,57354,NB BOUNDARY BAY RD AT 500 BLOCK,BOUNDARY BAY RD @ 500 BLOCK,49.013686,-123.050017,ZN 99, ,0,
7428,57355,NB BOUNDARY BAY RD FS IRONWOOD PL,BOUNDARY BAY RD @ IRONWOOD PL,49.018276,-123.057173,ZN 99, ,0,
7429,57356,WB 12 AVE FS MORRIS CRES,12 AVE @ MORRIS CRES,49.024687,-123.060480,ZN 99, ,0,
7430,57357,WB 12 AVE FS JACKSON WAY,12 AVE @ JACKSON WAY,49.024728,-123.063423,ZN 99, ,0,
7431,57358,WB 12 AVE FS HUNTER RD,12 AVE @ HUNTER RD,49.024752,-123.066993,ZN 99, ,0,
7493,57420,EB 12 AVE FS 56 ST,12 AVE @ 56 ST,49.024609,-123.067610,ZN 99, ,0,
7494,57421,EB 12 AVE FS JACKSON WAY,12 AVE @ JACKSON WAY,49.024574,-123.062595,ZN 99, ,0,
7495,57422,EB 12 AVE NS MORRIS CRES,12 AVE @ MORRIS CRES,49.024550,-123.060452,ZN 99, ,0,
7496,57423,SB BOUNDARY BAY RD FS IRONWOOD PL,BOUNDARY BAY RD @ IRONWOOD PL,49.017638,-123.056876,ZN 99, ,0,
7497,57424,SB BOUNDARY BAY RD AT 500 BLOCK,BOUNDARY BAY RD @ 500 BLOCK,49.014469,-123.051750,ZN 99, ,0,
7498,57425,EB 3 AVE FS BOUNDARY BAY RD,3 AVE @ BOUNDARY BAY RD,49.008386,-123.045889,ZN 99, ,0,
7499,57426,EB 3 AVE NS 66A ST,3 AVE @ 66A ST,49.008360,-123.040471,ZN 99, ,0,
7500,57427,SB 67 ST FS 3 AVE,67 ST @ 3 AVE,49.007685,-123.039011,ZN 99, ,0,
11729,61666,EB 3 AVE AT 6500 BLOCK,3 AVE @ 6500 BLOCK,49.008384,-123.042862,ZN 99, ,0,
6336,56276,WB COLUMBIA AVE AT 15500 BLOCK,COLUMBIA AVE @ 15500 BLOCK,49.019309,-122.792996,ZN 99, ,0,
6337,56277,WB COLUMBIA AVE AT 15300 BLOCK,COLUMBIA AVE @ 15300 BLOCK,49.020515,-122.796817,ZN 99, ,0,
6338,56278,NB CENTRE ST FS ROYAL AVE,CENTRE ST @ ROYAL AVE,49.022128,-122.797538,ZN 99, ,0,
6339,56279,NB JOHNSTON RD FS PACIFIC AVE,JOHNSTON RD @ PACIFIC AVE,49.024201,-122.801064,ZN 99, ,0,
6173,56115,NB JOHNSTON RD FS RUSSELL AVE,JOHNSTON RD @ RUSSELL AVE,49.029972,-122.801045,ZN 99, ,0,
6172,56114,NB JOHNSTON RD FS THRIFT AVE,JOHNSTON RD @ THRIFT AVE,49.027923,-122.800982,ZN 99, ,0,
6298,56238,EB MARINE DR NS MARTIN ST,MARINE DR @ MARTIN ST,49.021809,-122.807476,ZN 99, ,0,
5436,55383,WHITE ROCK CENTRE BAY 7,WHITE ROCK CENTRE @ BAY 7,49.032785,-122.801052,ZN 99, ,0,
6299,56239,EB MARINE DR AT 15000 BLOCK,MARINE DR @ 15000 BLOCK,49.020745,-122.803855,ZN 99, ,0,
6300,56240,EB MARINE DR AT FIR ST,MARINE DR @ FIR ST,49.019905,-122.800901,ZN 99, ,0,
6301,56241,EB MARINE DR NS DOLPHIN ST,MARINE DR @ DOLPHIN ST,49.019036,-122.798086,ZN 99, ,0,
6302,56242,EB MARINE DR AT BALSAM ST,MARINE DR @ BALSAM ST,49.017816,-122.794239,ZN 99, ,0,
6303,56243,EB MARINE DR FS FINLAY ST,MARINE DR @ FINLAY ST,49.016529,-122.789729,ZN 99, ,0,
6335,56275,WB COLUMBIA AVE FS MAPLE ST,COLUMBIA AVE @ MAPLE ST,49.018456,-122.789536,ZN 99, ,0,
6357,56297,SB JOHNSTON RD NS THRIFT AVE,JOHNSTON RD @ THRIFT AVE,49.028057,-122.801309,ZN 99, ,0,
6449,56389,WB BUENA VISTA AVE FS FOSTER ST,BUENA VISTA AVE @ FOSTER ST,49.023963,-122.804311,ZN 99, ,0,
6450,56390,WB BUENA VISTA AVE FS BLACKWOOD ST,BUENA VISTA AVE @ BLACKWOOD ST,49.023973,-122.807022,ZN 99, ,0,
6451,56391,WB BUENA VISTA AVE FS BEACHVIEW AVE,BUENA VISTA AVE @ BEACH VIEW AVE,49.023978,-122.808888,ZN 99, ,0,
6452,56392,WB BUENA VISTA AVE NS OXFORD ST,BUENA VISTA AVE @ OXFORD ST,49.023985,-122.811771,ZN 99, ,0,
6297,56237,EB MARINE DR FS ELM ST,MARINE DR @ ELM ST,49.022583,-122.810074,ZN 99, ,0,
8864,58577,SEMIAHMOO MALL AT MALL ENTRANCE,MALL ACCESS RD @ MALL ENTRANCE,49.033418,-122.802541,ZN 99, ,0,
6195,56136,WHITE ROCK CENTRE BAY 3,WHITE ROCK CENTRE @ BAY 3,49.030718,-122.801296,ZN 99, ,0,
5539,55485,SB MARTIN DR FS E SOUTHMERE CRES,MARTIN DR @ E SOUTHMERE CRES,49.034509,-122.803621,ZN 99, ,0,
11364,61401,SB JOHNSTON RD NS BUENA VISTA AVE,JOHNSTON RD @ BUENA VISTA AVE,49.024089,-122.801224,ZN 99, ,0,
5542,55488,SB 152 ST FS 17 AVE,152 ST @ 17 AVE,49.032620,-122.801323,ZN 99, ,0,
6728,56665,SB HWY 17A FS LADNER TRUNK RD,HWY 17A @ LADNER TRUNK RD,49.089010,-123.057236,ZN 99, ,0,
4172,54128,WB INDIAN RIVER DR FS CASCADE COURT,INDIAN RIVER DR @ CASCADE COURT,49.321417,-122.966753,ZN 99, ,0,
4173,54129,SB MT SEYMOUR RD FS HAMBER PL,MT SEYMOUR RD @ HAMBER PL,49.319432,-122.969140,ZN 99, ,0,
4107,54066,WB MT SEYMOUR PARKWAY FS MT SEYMOUR RD,MT SEYMOUR PARKWAY @ MT SEYMOUR RD,49.316049,-122.969788,ZN 99, ,0,
4108,54067,WB MT SEYMOUR PARKWAY FS PARKGATE AVE,MT SEYMOUR PARKWAY @ PARKGATE AVE,49.315859,-122.975040,ZN 99, ,0,
4110,54069,WB MT SEYMOUR PARKWAY NS STRATHAVEN DR,MT SEYMOUR PARKWAY @ STRATHAVEN DR,49.315764,-122.984288,ZN 99, ,0,
4174,54130,WB PLYMOUTH DR FS FAIRFIELD RD,PLYMOUTH DR @ FAIRFIELD RD,49.315189,-122.990208,ZN 99, ,0,
4175,54131,SB PLYMOUTH DR FS BRIXHAM RD,PLYMOUTH DR @ BRIXHAM RD,49.314816,-122.992427,ZN 99, ,0,
4176,54132,SB PLYMOUTH DR FS TOLLCROSS RD,PLYMOUTH DR @ TOLLCROSS RD,49.313339,-122.992442,ZN 99, ,0,
4177,54133,SB PLYMOUTH DR FS MCCARTNEY CLOSE,PLYMOUTH DR @ MCCARTNEY CLOSE,49.310719,-122.995180,ZN 99, ,0,
4138,54095,WB DOLLARTON HWY FS ELLIS ST,DOLLARTON HWY @ ELLIS ST,49.308892,-122.994721,ZN 99, ,0,
4139,54096,WB DOLLARTON HWY AT 2500 BLOCK,DOLLARTON HWY @ 2500 BLOCK,49.308157,-123.002585,ZN 99, ,0,
9038,58330,WB DOLLARTON HWY AT 2400 BLOCK,DOLLARTON HWY @ 2400 BLOCK,49.307780,-123.006336,ZN 99, ,0,
4140,58455,WB DOLLARTON HWY FS FORESTER ST,DOLLARTON HWY @ FORESTER ST,49.306090,-123.011439,ZN 99, ,0,
8830,58458,NB RIVERSIDE DR FS DOLLARTON HWY,RIVERSIDE DR @ DOLLARTON HWY,49.306138,-123.014171,ZN 99, ,0,
4141,54098,WB OLD DOLLARTON RD FS RIVERSIDE DR,OLD DOLLARTON RD @ RIVERSIDE DR,49.307552,-123.015949,ZN 99, ,0,
4142,54099,WB OLD DOLLARTON RD FS FRONT ST,OLD DOLLARTON RD @ FRONT ST,49.306082,-123.018714,ZN 99, ,0,
11327,61302,WB INDIAN RIVER DR NS MT SEYMOUR RD,INDIAN RIVER DR @ MT SEYMOUR RD,49.321443,-122.968697,ZN 99, ,0,
4109,54068,WB MT SEYMOUR PARKWAY FS APEX AVE,MT SEYMOUR PARKWAY @ APEX AVE,49.315721,-122.980964,ZN 99, ,0,
6735,56672,NB HWY 17 FS 56 ST,HWY 17 @ 56 ST,49.043179,-123.067662,ZN 99, ,0,
7259,57188,LANGLEY CENTRE BAY 6,LANGLEY CENTRE @ BAY 6,49.106538,-122.654955,ZN 99, ,0,
7192,57122,SB 198 ST FS 24 AVE,198 ST @ 24 AVE,49.044614,-122.674966,ZN 99, ,0,
7196,57126,NB 200 ST FS 28 AVE,200 ST @ 28 AVE,49.053114,-122.669370,ZN 99, ,0,
7198,57128,NB 200 ST FS 32 AVE,200 ST @ 32 AVE,49.060741,-122.669420,ZN 99, ,0,
7199,57129,NB 200 ST FS 33A AVE,200 ST @ 33A AVE,49.063087,-122.669434,ZN 99, ,0,
7086,57018,NB 200 ST FS 50 AVE,200 ST @ 50 AVE,49.093927,-122.668476,ZN 99, ,0,
7093,57025,NB 203 ST FS FRASER HWY,203 ST @ FRASER HWY,49.105965,-122.659978,ZN 99, ,0,
7094,57026,EB LOGAN AVE FS 203A ST,LOGAN AVE @ 203A ST,49.107717,-122.657694,ZN 99, ,0,
8936,58549,NB 200 ST FS 36 AVE,200 ST @ 36 AVE,49.067865,-122.669371,ZN 99, ,0,
8937,58550,NB 200 ST FS 38A AVE,200 ST @ 38A AVE,49.072156,-122.669457,ZN 99, ,0,
7195,57125,NB 200 ST FS 24 AVE,200 ST @ 24 AVE,49.046711,-122.669285,ZN 99, ,0,
7178,57109,EB 40 AVE FS 200A ST,40 AVE @ 200A ST,49.074633,-122.667761,ZN 99, ,0,
7179,57110,EB 40 AVE FS 202 ST,40 AVE @ 202 ST,49.074626,-122.663581,ZN 99, ,0,
7071,57003,NB 208 ST FS 44 AVE,208 ST @ 44 AVE,49.082340,-122.647006,ZN 99, ,0,
7072,57004,NB 208 ST FS 45A AVE,208 ST @ 45A AVE,49.084791,-122.646880,ZN 99, ,0,
7073,57005,WB GRADE CRES FS 208 ST,GRADE CRES @ 208 ST,49.087851,-122.648549,ZN 99, ,0,
7074,57006,WB GRADE CRES AT 20400 BLOCK,GRADE CRES @ 20400 BLOCK,49.089094,-122.656772,ZN 99, ,0,
8945,58558,WB GRADE CRES FS 203 ST,GRADE CRES @ 203 ST,49.090089,-122.660288,ZN 99, ,0,
8946,58559,WB GRADE CRES NS 200 ST,GRADE CRES @ 200 ST,49.092069,-122.667274,ZN 99, ,0,
9011,58646,NB 208 ST FS 40 AVE,208 ST @ 40 AVE,49.075012,-122.647367,ZN 99, ,0,
9013,58644,EB 40 AVE FS 204 ST,40 AVE @ 204 ST,49.074618,-122.658125,ZN 99, ,0,
9014,58645,EB 40 AVE NS 206A ST,40 AVE @ 206A ST,49.074548,-122.652728,ZN 99, ,0,
7070,57002,NB 208 ST FS 42 AVE,208 ST @ 42 AVE,49.078766,-122.647183,ZN 99, ,0,
9024,58338,NB 200 ST FS 22 AVE,200 ST @ 22 AVE,49.042347,-122.669245,ZN 99, ,0,
9026,57123,EB 20 AVE FS 198 ST,20 AVE @ 198 ST,49.038376,-122.674191,ZN 99, ,0,
9025,57124,NB 200 ST FS 20 AVE,200 ST @ 20 AVE,49.038776,-122.669248,ZN 99, ,0,
9030,58716,NB 200 ST FS 37 AVE,200 ST @ 37 AVE,49.069523,-122.669414,ZN 99, ,0,
9435,58733,NB 203 ST FS 56 AVE,203 ST @ 56 AVE,49.104588,-122.660101,ZN 99, ,0,
7197,57127,NB 200 ST FS 30 AVE,200 ST @ 30 AVE,49.057724,-122.669416,ZN 99, ,0,
7087,57019,EB 53 AVE FS 200 ST,53 AVE @ 200 ST,49.098383,-122.668086,ZN 99, ,0,
7088,57020,EB 53 AVE FS 201A ST,53 AVE @ 201A ST,49.098391,-122.663959,ZN 99, ,0,
5360,55307,NB 203 ST FS 53 AVE,203 ST @ 53 AVE,49.099278,-122.659710,ZN 99, ,0,
5361,55308,NB 203 ST FS 54 AVE,203 ST @ 54 AVE,49.100856,-122.659651,ZN 99, ,0,
5362,55309,NB 203 ST NS MICHAUD CRES,203 ST @ MICHAUD CRES,49.103109,-122.659606,ZN 99, ,0,
7127,57059,EB 96 AVE FS 190 ST,96 AVE @ 190 ST,49.176926,-122.694776,ZN 99, ,0,
7128,57060,EB 96 AVE FS 192 ST,96 AVE @ 192 ST,49.176884,-122.689214,ZN 99, ,0,
7129,57061,EB 96 AVE FS 195 ST,96 AVE @ 195 ST,49.176911,-122.681788,ZN 99, ,0,
7130,57062,EB 96 AVE FS 198 ST,96 AVE @ 198 ST,49.176925,-122.673076,ZN 99, ,0,
7132,61487,SB 200 ST AT 9200 BLOCK,200 ST @ 9200 BLOCK,49.172425,-122.668235,ZN 99, ,0,
9592,59143,EB 91A AVE AT 20100 BLOCK,91A AVE @ 20100 BLOCK,49.168978,-122.664864,ZN 99, ,0,
7138,57070,SB 200 ST FS 80 AVE,200 ST @ 80 AVE,49.147449,-122.668434,ZN 99, ,0,
7139,57071,SB 200 ST AT 7500 BLOCK,200 ST @ 7500 BLOCK,49.140473,-122.668428,ZN 99, ,0,
7140,57072,SB 200 ST FS 72 AVE,200 ST @ 72 AVE,49.133118,-122.668534,ZN 99, ,0,
7142,57074,SB 200 ST FS 68 AVE,200 ST @ 68 AVE,49.125762,-122.668626,ZN 99, ,0,
7143,57075,SB 200 ST FS WILLOUGHBY WAY,200 ST @ WILLOUGHBY WAY,49.122272,-122.668693,ZN 99, ,0,
7144,57076,WB WILLOWBROOK DR FS 200 ST,WILLOWBROOK DR @ 200 ST,49.116842,-122.670229,ZN 99, ,0,
7145,57077,WB WILLOWBROOK DR NS 198 ST,WILLOWBROOK DR @ 198 ST,49.116871,-122.673698,ZN 99, ,0,
5336,55284,WB WILLOWBROOK DR FS 197 ST,WILLOWBROOK DR @ 197 ST,49.116898,-122.677644,ZN 99, ,0,
5337,55285,SB WILLOWBROOK DR AT 19600 BLOCK,WILLOWBROOK DR @ 19600 BLOCK,49.115185,-122.678809,ZN 99, ,0,
5338,55286,EB FRASER HWY FS LANGLEY BYPASS,FRASER HWY @ LANGLEY BYPASS,49.111321,-122.674403,ZN 99, ,0,
5339,55287,EB FRASER HWY FS PRODUCTION WAY,FRASER HWY @ PRODUCTION WAY,49.109829,-122.671075,ZN 99, ,0,
7147,57079,EB FRASER HWY FS 201A ST,FRASER HWY @ 201A ST,49.106342,-122.663390,ZN 99, ,0,
7095,57027,LANGLEY CENTRE BAY 3,LANGLEY CENTRE @ BAY 3,49.106256,-122.654258,ZN 99, ,0,
9463,58950,EB 104 AVE FS 158 ST,104 AVE @ 158 ST,49.191461,-122.783771,ZN 99, ,0,
8989,58590,EB FRASER HWY FS 196 ST,FRASER HWY @ 196 ST,49.113332,-122.678809,ZN 99, ,0,
10199,59605,SB 200 ST FS 64 AVE,200 ST @ 64 AVE,49.118494,-122.668743,ZN 99, ,0,
10256,59599,SB 200 ST FS 86 AVE,200 ST @ 86 AVE,49.158595,-122.668182,ZN 99, ,0,
10874,61028,SB 199A ST FS 96 AVE,199A ST @ 96 AVE,49.176466,-122.669453,ZN 99, ,0,
5667,55612,SURREY CENTRAL STN BAY 4,SURREY CENTRAL STN @ BAY 4,49.188850,-122.849361,ZN 99, ,0,
11312,60854,SB 200 ST FS 82 AVE,200 ST @ 82 AVE,49.151338,-122.668413,ZN 99, ,0,
11807,61711,CARVOLTH EXCHANGE BAY 3,CARVOLTH EXCHANGE @ BAY 3,49.160288,-122.660329,ZN 99, ,0,
11818,61724,SB 200 ST FS 84 AVE,200 ST @ 84 AVE,49.155166,-122.668314,ZN 99, ,0,
11847,61761,SB 202 ST AT 8900 BLOCK,202 ST @ 8900 BLOCK,49.164205,-122.660613,ZN 99, ,0,
7146,57078,EB FRASER HWY FS 200 ST,FRASER HWY @ 200 ST,49.107811,-122.666582,ZN 99, ,0,
5274,55222,EB 104 AVE FS 150 ST,104 AVE @ 150 ST,49.191359,-122.805799,ZN 99, ,0,
7141,57073,SB 200 ST FS 70 AVE,200 ST @ 70 AVE,49.129545,-122.668532,ZN 99, ,0,
5266,55214,EB 104 AVE FS WHALLEY BLVD,104 AVE @ WHALLEY BLVD,49.191475,-122.841080,ZN 99, ,0,
5268,55216,EB 104 AVE FS 140 ST,104 AVE @ 140 ST,49.191383,-122.833623,ZN 99, ,0,
5270,55218,EB 104 AVE FS 144 ST,104 AVE @ 144 ST,49.191438,-122.822383,ZN 99, ,0,
5272,55220,EB 104 AVE FS 148 ST,104 AVE @ 148 ST,49.191406,-122.811880,ZN 99, ,0,
5180,55128,GUILDFORD EXCHANGE BAY 1,GUILDFORD EXCHANGE @ BAY 1,49.191353,-122.803459,ZN 99, ,0,
5816,55761,EB 104 AVE FS 152 ST,104 AVE @ 152 ST,49.191386,-122.799852,ZN 99, ,0,
5817,55762,EB 104 AVE FS 154 ST,104 AVE @ 154 ST,49.191447,-122.794620,ZN 99, ,0,
5909,55854,EB 104 AVE FS 156 ST,104 AVE @ 156 ST,49.191485,-122.789033,ZN 99, ,0,
7125,57057,EB 96 AVE FS 186 ST,96 AVE @ 186 ST,49.176936,-122.706947,ZN 99, ,0,
7126,57058,EB 96 AVE FS 188 ST,96 AVE @ 188 ST,49.176923,-122.700367,ZN 99, ,0,
511,50507,WB E HASTINGS ST FS DUNLEVY AVE,E HASTINGS ST @ DUNLEVY AVE,49.281356,-123.095847,ZN 99, ,0,
3428,50185,WB E HASTINGS ST FS MAIN ST,E HASTINGS ST @ MAIN ST,49.281455,-123.100775,ZN 99, ,0,
8802,58393,WB HASTINGS ST FS DUTHIE AVE,HASTINGS ST @ DUTHIE AVE,49.280474,-122.954024,ZN 99, ,0,
737,50730,WB E HASTINGS ST FS NANAIMO ST,E HASTINGS ST @ NANAIMO ST,49.281242,-123.057254,ZN 99, ,0,
10208,59044,SB TOWER RD FS UNIVERSITY HIGH ST,TOWER RD @ UNIVERSITY HIGH ST,49.277133,-122.909375,ZN 99, ,0,
3429,50187,WB W HASTINGS ST FS ABBOTT ST,W HASTINGS ST @ ABBOTT ST,49.282221,-123.108043,ZN 99, ,0,
186,50186,WB W HASTINGS ST FS CARRALL ST,W HASTINGS ST @ CARRALL ST,49.281733,-123.105366,ZN 99, ,0,
1878,51864,WB UNIVERSITY DR W FS W CAMPUS RD,UNIVERSITY DR W @ W CAMPUS RD,49.281238,-122.928277,ZN 99, ,0,
971,50962,WB W HASTINGS ST FS HOMER ST,W HASTINGS ST @ HOMER ST,49.283926,-123.111570,ZN 99, ,0,
3129,53096,SFU TRANSIT EXCHANGE BAY 2,SFU TRANSIT EXCHANGE @ BAY 2,49.278484,-122.912790,ZN 99, ,0,
1876,51862,WB S CAMPUS RD FS SCIENCE RD,S CAMPUS RD @ SCIENCE RD,49.276557,-122.916031,ZN 99, ,0,
1877,51863,SFU TRANSPORTATION CENTRE BAY 1,SFU TRANSPORTATION CENTRE @ BAY 1,49.279957,-122.920119,ZN 99, ,0,
1879,51865,WB BURNABY MOUNTAIN PARKWAY AT CURTIS ST,BURNABY MOUNTAIN PARKWAY @ CURTIS ST,49.275447,-122.941479,ZN 99, ,0,
1880,51866,WB BURNABY MOUNTAIN PARKWAY AT BURNWOOD AVE,BURNABY MOUNTAIN PARKWAY @ BURNWOOD AVE,49.278164,-122.946822,ZN 99, ,0,
965,50956,WB E HASTINGS ST FS SKEENA ST,E HASTINGS ST @ SKEENA ST,49.281215,-123.028984,ZN 99, ,0,
966,50957,WB E HASTINGS ST FS CASSIAR ST,E HASTINGS ST @ CASSIAR ST,49.281267,-123.032823,ZN 99, ,0,
967,50958,WB E HASTINGS ST FS WINDERMERE ST,E HASTINGS ST @ WINDERMERE ST,49.281219,-123.036936,ZN 99, ,0,
503,50499,WB E HASTINGS ST FS COMMERCIAL DR,E HASTINGS ST @ COMMERCIAL DR,49.281362,-123.071174,ZN 99, ,0,
968,50959,WB E HASTINGS ST FS RENFREW ST,E HASTINGS ST @ RENFREW ST,49.281229,-123.044631,ZN 99, ,0,
969,50960,WB E HASTINGS ST FS KASLO ST,E HASTINGS ST @ KASLO ST,49.281226,-123.047423,ZN 99, ,0,
970,50961,WB E HASTINGS ST FS PENTICTON ST,E HASTINGS ST @ PENTICTON ST,49.281228,-123.052402,ZN 99, ,0,
738,50731,WB E HASTINGS ST FS TEMPLETON DR,E HASTINGS ST @ TEMPLETON DR,49.281260,-123.060231,ZN 99, ,0,
9104,58652,WB E HASTINGS ST FS LAKEWOOD DR,E HASTINGS ST @ LAKEWOOD DR,49.281270,-123.062205,ZN 99, ,0,
740,50733,WB E HASTINGS ST FS VICTORIA DR,E HASTINGS ST @ VICTORIA DR,49.281297,-123.066124,ZN 99, ,0,
504,50500,WB E HASTINGS ST FS MCLEAN DR,E HASTINGS ST @ MCLEAN DR,49.281378,-123.074606,ZN 99, ,0,
505,50501,WB E HASTINGS ST FS CLARK DR,E HASTINGS ST @ CLARK DR,49.281445,-123.077888,ZN 99, ,0,
506,50502,WB E HASTINGS ST FS GLEN DR,E HASTINGS ST @ GLEN DR,49.281111,-123.081789,ZN 99, ,0,
507,50503,WB E HASTINGS ST FS CAMPBELL AVE,E HASTINGS ST @ CAMPBELL AVE,49.281155,-123.085249,ZN 99, ,0,
